Location,School Name,Type,Latitude,Longitude,Score
Western Australia,SHARK BAY SCHOOL,Primary,-25.92280075,113.5309441,945
Western Australia,CARNARVON CHRISTIAN SCHOOL (INC),Primary,-24.87551778,113.6576221,1027
Western Australia,ST MARY STAR OF THE SEA CATHOLIC SCHOOL,Primary,-24.88555971,113.6586924,996
Western Australia,ST MARY STAR OF THE SEA CATHOLIC SCHOOL,Secondary,-24.88555971,113.6586924,996
Western Australia,CARNARVON SCHOOL OF THE AIR,Primary,-24.88431096,113.6607577,1062
Western Australia,CARNARVON COMMUNITY COLLEGE,Secondary,-24.867098,113.676415,763
Western Australia,EXMOUTH DISTRICT HIGH SCHOOL,Secondary,-21.93316002,114.1242962,1016
Western Australia,KALBARRI DISTRICT HIGH SCHOOL,Secondary,-27.712788,114.163881,988
Western Australia,BEACHLANDS PRIMARY SCHOOL,Primary,-28.78770753,114.6043717,788
Western Australia,GERALDTON PRIMARY SCHOOL,Primary,-28.77863662,114.6080556,997
Western Australia,NAGLE CATHOLIC COLLEGE,Secondary,-28.77776964,114.6099931,1018
Western Australia,GERALDTON SENIOR HIGH SCHOOL,Secondary,-28.78068474,114.6117092,904
Western Australia,ST FRANCIS XAVIER PRIMARY SCHOOL,Primary,-28.77685819,114.6147063,1019
Western Australia,MEEKATHARRA SCHOOL OF THE AIR,Primary,-28.74042558,114.6196915,991
Western Australia,GERALDTON GRAMMAR SCHOOL,Primary,-28.76195313,114.621025,1068
Western Australia,GERALDTON GRAMMAR SCHOOL,Secondary,-28.76195313,114.621025,1068
Western Australia,BLUFF POINT PRIMARY SCHOOL,Primary,-28.7403527,114.6215834,805
Western Australia,ST LAWRENCE'S PRIMARY SCHOOL,Primary,-28.744657,114.622509,1019
Western Australia,ALLENDALE PRIMARY SCHOOL,Primary,-28.76430303,114.6237354,890
Western Australia,ST JOHN'S SCHOOL,Primary,-28.78351925,114.626735,934
Western Australia,RANGEWAY PRIMARY SCHOOL,Primary,-28.779091,114.628564,755
Western Australia,MOUNT TARCOOLA PRIMARY SCHOOL,Primary,-28.80052461,114.6295411,955
Western Australia,ST MARY'S SCHOOL,Primary,-28.35047262,114.6295977,959
Western Australia,WANDINA PRIMARY SCHOOL,Primary,-28.816506,114.634667,994
Western Australia,WAGGRAKINE PRIMARY SCHOOL,Primary,-28.71870352,114.6369427,912
Western Australia,STRATHALBYN CHRISTIAN COLLEGE,Primary,-28.75198509,114.6442673,1026
Western Australia,STRATHALBYN CHRISTIAN COLLEGE,Secondary,-28.75198509,114.6442673,1026
Western Australia,NORTHAMPTON DISTRICT HIGH SCHOOL,Secondary,-28.3556655,114.646082,913
Western Australia,BINNU PRIMARY SCHOOL,Primary,-28.04197194,114.6755891,985
Western Australia,CHAPMAN VALLEY PRIMARY SCHOOL,Primary,-28.49970321,114.7915149,1013
Western Australia,WALKAWAY PRIMARY SCHOOL,Primary,-28.93930719,114.7991226,1001
Western Australia,DONGARA DISTRICT HIGH SCHOOL,Secondary,-29.24926582,114.9285663,962
Western Australia,LEEMAN PRIMARY SCHOOL,Primary,-29.94892052,114.9784342,928
Western Australia,YALLINGUP STEINER SCHOOL,Primary,-33.6730468,115.0314978,1064
Western Australia,JURIEN BAY DISTRICT HIGH SCHOOL,Secondary,-30.308373,115.040116,961
Western Australia,CERVANTES PRIMARY SCHOOL,Primary,-30.4991469,115.0659247,968
Western Australia,MARGARET RIVER MONTESSORI SCHOOL,Primary,-33.95961243,115.0673346,1062
Western Australia,ST THOMAS MORE CATHOLIC PRIMARY SCHOOL,Primary,-33.95314926,115.0688027,1064
Western Australia,MARGARET RIVER SENIOR HIGH SCHOOL,Secondary,-33.95431827,115.0746714,1037
Western Australia,MARGARET RIVER PRIMARY SCHOOL,Primary,-33.95452824,115.0757428,1038
Western Australia,RAPIDS LANDING PRIMARY SCHOOL,Primary,-33.963862,115.083987,1031
Western Australia,OUR LADY OF THE CAPE PRIMARY SCHOOL,Primary,-33.59792583,115.0895654,1081
Western Australia,KARRIDALE PRIMARY SCHOOL,Primary,-34.21784646,115.0955651,1018
Western Australia,DUNSBOROUGH PRIMARY SCHOOL,Primary,-33.60060793,115.0997912,1053
Western Australia,MARGARET RIVER INDEPENDENT SCHOOL,Primary,-34.06767921,115.1053456,1067
Western Australia,COWARAMUP PRIMARY SCHOOL,Primary,-33.851817,115.1071394,1034
Western Australia,ONSLOW PRIMARY SCHOOL,Primary,-21.638195,115.110441,944
Western Australia,AUGUSTA PRIMARY SCHOOL,Primary,-34.31671839,115.1595029,974
Western Australia,CAPE NATURALISTE COLLEGE,Secondary,-33.67693545,115.2438891,1008
Western Australia,VASSE PRIMARY SCHOOL,Primary,-33.68018743,115.2489773,1003
Western Australia,ENEABBA PRIMARY SCHOOL,Primary,-29.82022038,115.2681635,1042
Western Australia,WEST BUSSELTON PRIMARY SCHOOL,Primary,-33.65509248,115.3149728,949
Western Australia,CORNERSTONE CHRISTIAN COLLEGE LTD,Primary,-33.67026207,115.3229807,1052
Western Australia,BUSSELTON SENIOR HIGH SCHOOL,Secondary,-33.6575772,115.3250971,947
Western Australia,GEOGRAPHE PRIMARY SCHOOL,Primary,-33.66661113,115.3288339,977
Western Australia,LANCELIN PRIMARY SCHOOL,Primary,-31.01148261,115.3298498,937
Western Australia,ST MARY MACKILLOP COLLEGE,Primary,-33.66260748,115.3302509,1045
Western Australia,ST MARY MACKILLOP COLLEGE,Secondary,-33.66260748,115.3302509,1045
Western Australia,BUSSELTON PRIMARY SCHOOL,Primary,-33.63955416,115.3763212,939
Western Australia,GEORGIANA MOLLOY ANGLICAN SCHOOL,Primary,-33.6606425,115.3815495,1072
Western Australia,GEORGIANA MOLLOY ANGLICAN SCHOOL,Secondary,-33.6606425,115.3815495,1072
Western Australia,MINGENEW PRIMARY SCHOOL,Primary,-29.19497017,115.4407518,1036
Western Australia,MULLEWA DISTRICT HIGH SCHOOL,Secondary,-28.53708777,115.5128854,674
Western Australia,OUR LADY OF MOUNT CARMEL SCHOOL,Primary,-28.53894476,115.5171062,965
Western Australia,BADGINGARRA PRIMARY SCHOOL,Primary,-30.4024941,115.550545,1033
Western Australia,CAPEL PRIMARY SCHOOL,Primary,-33.55724062,115.5647487,985
Western Australia,TWO ROCKS PRIMARY SCHOOL,Primary,-31.48931676,115.5911503,977
Western Australia,DALYELLUP PRIMARY SCHOOL,Primary,-33.39985687,115.6228338,964
Western Australia,DALYELLUP COLLEGE,Secondary,-33.40385496,115.6257673,981
Western Australia,BUNBURY BAPTIST COLLEGE,Primary,-33.400403,115.627001,1010
Western Australia,MAIDENS PARK PRIMARY SCHOOL,Primary,-33.36974451,115.6277556,838
Western Australia,OCEAN ROAD PRIMARY SCHOOL,Primary,-32.62467996,115.6307461,968
Western Australia,ST DAMIEN'S CATHOLIC PRIMARY SCHOOL,Primary,-32.62651453,115.6313815,1038
Western Australia,YANCHEP BEACH PRIMARY SCHOOL,Primary,-31.5440709,115.631774,988
Western Australia,BUNBURY SENIOR HIGH SCHOOL,Secondary,-33.32746917,115.6326077,1019
Western Australia,ST JOSEPH'S PRIMARY SCHOOL,Primary,-33.37377642,115.6330822,1017
Western Australia,TUART FOREST PRIMARY SCHOOL,Primary,-33.39160056,115.6346071,993
Western Australia,YANCHEP LAGOON PRIMARY SCHOOL,Primary,-31.55198666,115.6353379,982
Western Australia,ADAM ROAD PRIMARY SCHOOL,Primary,-33.357951,115.635371,970
Western Australia,NEWTON MOORE SENIOR HIGH SCHOOL,Secondary,-33.359211,115.6354214,920
Western Australia,BUNBURY PRIMARY SCHOOL,Primary,-33.33305655,115.6381042,1076
Western Australia,BUNBURY CATHEDRAL GRAMMAR SCHOOL,Primary,-33.404668,115.63864,1081
Western Australia,BUNBURY CATHEDRAL GRAMMAR SCHOOL,Secondary,-33.404668,115.63864,1081
Western Australia,SOUTH BUNBURY PRIMARY SCHOOL,Primary,-33.34068153,115.6428274,1001
Western Australia,FALCON PRIMARY SCHOOL,Primary,-32.59274022,115.6429808,1011
Western Australia,YANCHEP SECONDARY COLLEGE,Secondary,-31.552523,115.643429,978
Western Australia,ATLANTIS BEACH BAPTIST COLLEGE,Primary,-31.473535,115.644623,988
Western Australia,ATLANTIS BEACH BAPTIST COLLEGE,Secondary,-31.473535,115.644623,988
Western Australia,ST MARY'S CATHOLIC PRIMARY SCHOOL,Primary,-33.34321035,115.6449424,1071
Western Australia,CAREY PARK PRIMARY SCHOOL,Primary,-33.34906206,115.6505098,897
Western Australia,COOINDA PRIMARY SCHOOL,Primary,-33.33437038,115.6519077,965
Western Australia,MANEA SENIOR COLLEGE,Secondary,-33.36775659,115.6567975,1022
Western Australia,BUNBURY CATHOLIC COLLEGE,Secondary,-33.34342203,115.6614239,1035
Western Australia,SOUTH HALLS HEAD PRIMARY SCHOOL,Primary,-32.56442979,115.6786312,1027
Western Australia,ALKIMOS BEACH PRIMARY SCHOOL,Primary,-31.625186,115.678659,1025
Western Australia,GRACE CHRISTIAN SCHOOL,Primary,-33.33832794,115.6810759,1058
Western Australia,GRACE CHRISTIAN SCHOOL,Secondary,-33.33832794,115.6810759,1058
Western Australia,DJIDI DJIDI ABORIGINAL SCHOOL,Primary,-33.3480231,115.6823564,661
Western Australia,ST JAMES' ANGLICAN SCHOOL,Primary,-31.618541,115.68637,1068
Western Australia,ST JAMES' ANGLICAN SCHOOL,Secondary,-31.618541,115.68637,1068
Western Australia,PICTON PRIMARY SCHOOL,Primary,-33.34079961,115.6883296,943
Western Australia,JOHN BUTLER PRIMARY COLLEGE,Primary,-31.6321576,115.6940333,998
Western Australia,HALLS HEAD COLLEGE,Secondary,-32.55444963,115.6942404,930
Western Australia,NORTHSHORE CHRISTIAN GRAMMAR SCHOOL,Primary,-31.601801,115.694523,1048
Western Australia,HALLS HEAD PRIMARY SCHOOL,Primary,-32.55019839,115.6949747,982
Western Australia,QUINNS BEACH PRIMARY SCHOOL,Primary,-31.65764478,115.6950346,974
Western Australia,DANDARAGAN PRIMARY SCHOOL,Primary,-30.67304886,115.7019541,992
Western Australia,ALKIMOS PRIMARY SCHOOL,Primary,-31.62699105,115.7026573,1012
Western Australia,BUTLER PRIMARY SCHOOL,Primary,-31.6461099,115.7027364,999
Western Australia,EATON PRIMARY SCHOOL,Primary,-33.32181891,115.7028431,970
Western Australia,QUINNS ROCKS PRIMARY SCHOOL,Primary,-31.67298256,115.7028505,1021
Western Australia,GLENCOE PRIMARY SCHOOL,Primary,-32.54229018,115.7041404,974
Western Australia,MINDARIE SENIOR COLLEGE,Secondary,-31.6769792,115.7060496,1034
Western Australia,PETER MOYES ANGLICAN COMMUNITY SCHOOL,Primary,-31.67541576,115.7075982,1073
Western Australia,PETER MOYES ANGLICAN COMMUNITY SCHOOL,Secondary,-31.67541576,115.7075982,1073
Western Australia,BUTLER COLLEGE,Secondary,-31.65166367,115.7087008,993
Western Australia,MINDARIE PRIMARY SCHOOL,Primary,-31.687131,115.7093812,1070
Western Australia,IRENE MCCORMACK CATHOLIC COLLEGE,Secondary,-31.65406275,115.709449,1027
Western Australia,ALKIMOS BAPTIST COLLEGE,Primary,-31.66032819,115.7101785,1035
Western Australia,ALKIMOS BAPTIST COLLEGE,Secondary,-31.66032819,115.7101785,1035
Western Australia,QUINNS BAPTIST COLLEGE,Primary,-31.67618587,115.7101964,1062
Western Australia,QUINNS BAPTIST COLLEGE,Secondary,-31.67618587,115.7101964,1062
Western Australia,EAST BUTLER PRIMARY SCHOOL,Primary,-31.6437585,115.7117596,997
Western Australia,CLIFTON PARK PRIMARY SCHOOL,Primary,-33.30905652,115.7119826,996
Western Australia,MERRIWA PRIMARY SCHOOL,Primary,-31.66869847,115.7127243,929
Western Australia,SAFETY BAY PRIMARY SCHOOL,Primary,-32.29899323,115.7146933,1005
Western Australia,CLARKSON PRIMARY SCHOOL,Primary,-31.67754494,115.7183074,960
Western Australia,ST ANDREW'S CATHOLIC PRIMARY SCHOOL,Primary,-31.68720765,115.7218604,1035
Western Australia,ROCKINGHAM BEACH PRIMARY SCHOOL,Primary,-32.28213507,115.7219158,985
Western Australia,LESCHENAULT CATHOLIC PRIMARY SCHOOL,Primary,-33.28334496,115.7224856,1033
Western Australia,EATON COMMUNITY COLLEGE,Secondary,-33.3176055,115.7228908,947
Western Australia,MANDURAH PRIMARY SCHOOL,Primary,-32.52864487,115.7255254,919
Western Australia,GLEN HUON PRIMARY SCHOOL,Primary,-33.31523808,115.7261548,943
Western Australia,CLARKSON COMMUNITY HIGH SCHOOL,Secondary,-31.67744562,115.7267272,921
Western Australia,PARKFIELD PRIMARY SCHOOL,Primary,-33.265458,115.727042,997
Western Australia,AUSTRALIND PRIMARY SCHOOL,Primary,-33.28059897,115.7271368,957
Western Australia,SOMERLY PRIMARY SCHOOL,Primary,-31.68546051,115.7278576,983
Western Australia,AUSTRALIND SENIOR HIGH SCHOOL,Secondary,-33.27665965,115.7284365,977
Western Australia,BOYANUP PRIMARY SCHOOL,Primary,-33.48596223,115.7308445,937
Western Australia,STAR OF THE SEA PRIMARY SCHOOL,Primary,-32.28529599,115.7317146,1034
Western Australia,KINROSS COLLEGE,Secondary,-31.71789873,115.7325952,1033
Western Australia,DUDLEY PARK PRIMARY SCHOOL,Primary,-32.54121027,115.735351,912
Western Australia,BEAUMARIS PRIMARY SCHOOL,Primary,-31.74874488,115.7355529,1079
Western Australia,TREENDALE PRIMARY SCHOOL,Primary,-33.28194663,115.735559,1002
Western Australia,MULLALOO BEACH PRIMARY SCHOOL,Primary,-31.77654953,115.7366952,1070
Western Australia,ROCKINGHAM MONTESSORI SCHOOL,Primary,-32.27658489,115.736737,1061
Western Australia,ROCKINGHAM MONTESSORI SCHOOL,Secondary,-32.27658489,115.736737,1061
Western Australia,KINROSS PRIMARY SCHOOL,Primary,-31.71880258,115.7368105,1045
Western Australia,ST SIMON PETER CATHOLIC PRIMARY SCHOOL,Primary,-31.7521962,115.7376881,1083
Western Australia,BUNGAREE PRIMARY SCHOOL,Primary,-32.29110842,115.7378237,931
Western Australia,MANDURAH CATHOLIC COLLEGE,Primary,-32.54895945,115.738286,1040
Western Australia,MANDURAH CATHOLIC COLLEGE,Secondary,-32.54895945,115.738286,1040
Western Australia,FRANCIS JORDAN CATHOLIC SCHOOL,Primary,-31.73113849,115.7384265,1090
Western Australia,OCEAN REEF SENIOR HIGH SCHOOL,Secondary,-31.75879833,115.7389749,1052
Western Australia,NORTH MANDURAH PRIMARY SCHOOL,Primary,-32.51527461,115.7390197,931
Western Australia,OCEAN REEF PRIMARY SCHOOL,Primary,-31.76531973,115.7393848,1048
Western Australia,PRENDIVILLE CATHOLIC COLLEGE,Secondary,-31.75468355,115.7396844,1077
Western Australia,CHILD SIDE SCHOOL,Primary,-33.48598843,115.7411328,1083
Western Australia,CHILD SIDE SCHOOL,Secondary,-33.48598843,115.7411328,1083
Western Australia,ST MARK'S ANGLICAN COMMUNITY SCHOOL,Primary,-31.79848743,115.7428728,1119
Western Australia,ST MARK'S ANGLICAN COMMUNITY SCHOOL,Secondary,-31.79848743,115.7428728,1119
Western Australia,KINGSTON PRIMARY SCHOOL,Primary,-33.25919616,115.7435708,972
Western Australia,LANCE HOLT SCHOOL,Primary,-32.05462906,115.7441495,1158
Western Australia,ASSUMPTION CATHOLIC PRIMARY SCHOOL,Primary,-32.50994328,115.7464321,1027
Western Australia,SACRED HEART COLLEGE,Secondary,-31.82737166,115.74657,1109
Western Australia,MULLALOO HEIGHTS PRIMARY SCHOOL,Primary,-31.77780982,115.7482262,1068
Western Australia,ST PATRICK'S PRIMARY SCHOOL,Primary,-32.05135647,115.7486458,1084
Western Australia,CURRAMBINE PRIMARY SCHOOL,Primary,-31.73364969,115.7491022,1045
Western Australia,SPRINGFIELD PRIMARY SCHOOL,Primary,-31.79256944,115.7501819,1074
Western Australia,ENDEAVOUR PRIMARY SCHOOL,Primary,-32.37037017,115.7507254,985
Western Australia,CHARTHOUSE PRIMARY SCHOOL,Primary,-32.31714699,115.7508427,952
Western Australia,GREENFIELDS PRIMARY SCHOOL,Primary,-32.53397367,115.7509389,920
Western Australia,POSEIDON PRIMARY SCHOOL,Primary,-31.76078924,115.7510996,1036
Western Australia,THE BEEHIVE MONTESSORI SCHOOL INC,Primary,-32.01798492,115.7522159,1182
Western Australia,HILLARYS PRIMARY SCHOOL,Primary,-31.81329166,115.7525641,1103
Western Australia,FREDERICK IRWIN ANGLICAN SCHOOL,Primary,-32.50869435,115.7530802,1088
Western Australia,FREDERICK IRWIN ANGLICAN SCHOOL,Secondary,-32.50869435,115.7530802,1088
Western Australia,CHRISTIAN BROTHERS' COLLEGE,Secondary,-32.05178739,115.7533646,1089
Western Australia,FREMANTLE PRIMARY SCHOOL,Primary,-32.05883702,115.7535353,1125
Western Australia,KOLBE CATHOLIC COLLEGE,Secondary,-32.27997384,115.7539727,1046
Western Australia,LIVING WATERS LUTHERAN COLLEGE,Primary,-32.34307717,115.7544169,1039
Western Australia,OUR LADY OF LOURDES SCHOOL,Primary,-33.39717192,115.7545955,1055
Western Australia,WARNBRO PRIMARY SCHOOL,Primary,-32.33517258,115.7546455,923
Western Australia,COOLOONGUP PRIMARY SCHOOL,Primary,-32.29797619,115.7552819,915
Western Australia,PORT KENNEDY PRIMARY SCHOOL,Primary,-32.3585289,115.7554224,990
Western Australia,ST BERNADETTE'S CATHOLIC PRIMARY SCHOOL,Primary,-32.36083888,115.7561402,1040
Western Australia,JOHN CURTIN COLLEGE OF THE ARTS,Secondary,-32.04863279,115.7562238,1120
Western Australia,JOHN TONKIN COLLEGE,Secondary,-32.51758689,115.756358,980
Western Australia,OAKWOOD PRIMARY SCHOOL,Primary,-32.484084,115.756407,1004
Western Australia,NORTH FREMANTLE PRIMARY SCHOOL,Primary,-32.03454903,115.7567953,1092
Western Australia,BELDON PRIMARY SCHOOL,Primary,-31.7746556,115.7572522,1014
Western Australia,CONNOLLY PRIMARY SCHOOL,Primary,-31.74715629,115.7572958,1057
Western Australia,WHITFORD CATHOLIC PRIMARY SCHOOL,Primary,-31.78543296,115.7574269,1096
Western Australia,MEADOW SPRINGS PRIMARY SCHOOL,Primary,-32.50105217,115.7574921,976
Western Australia,SOUTH COAST BAPTIST COLLEGE,Primary,-32.31535966,115.7575046,1046
Western Australia,DARDANUP PRIMARY SCHOOL,Primary,-33.40089693,115.7575813,1029
Western Australia,SINGLETON PRIMARY SCHOOL,Primary,-32.44002498,115.7579582,995
Western Australia,SECRET HARBOUR PRIMARY SCHOOL,Primary,-32.403582,115.758725,1030
Western Australia,OUR LADY OF GRACE SCHOOL,Primary,-31.86356507,115.7588595,1116
Western Australia,EAST FREMANTLE PRIMARY SCHOOL,Primary,-32.04789275,115.7591484,1133
Western Australia,BEACONSFIELD PRIMARY SCHOOL,Primary,-32.068989,115.7593864,1097
Western Australia,PADBURY PRIMARY SCHOOL,Primary,-31.8058632,115.7594893,1070
Western Australia,MARMION PRIMARY SCHOOL,Primary,-31.84418326,115.7594902,1126
Western Australia,GOLDEN BAY PRIMARY SCHOOL,Primary,-32.42313769,115.7596842,971
Western Australia,CRAIGIE HEIGHTS PRIMARY SCHOOL,Primary,-31.79004304,115.7602644,1017
Western Australia,EAST WAIKIKI PRIMARY SCHOOL,Primary,-32.3040885,115.7605364,893
Western Australia,HEATHRIDGE PRIMARY SCHOOL,Primary,-31.76034748,115.7606344,1043
Western Australia,SORRENTO PRIMARY SCHOOL,Primary,-31.83148916,115.7608293,1114
Western Australia,NORTH BEACH PRIMARY SCHOOL,Primary,-31.85963391,115.7611061,1100
Western Australia,THREE SPRINGS PRIMARY SCHOOL,Primary,-29.53502154,115.7611349,937
Western Australia,COTTESLOE PRIMARY SCHOOL,Primary,-32.002516,115.761337,1147
Western Australia,LAKE JOONDALUP BAPTIST COLLEGE,Primary,-31.73747504,115.7614206,1105
Western Australia,LAKE JOONDALUP BAPTIST COLLEGE,Secondary,-31.73747504,115.7614206,1105
Western Australia,BAMBARA PRIMARY SCHOOL,Primary,-31.79830122,115.7614207,1059
Western Australia,JOONDALUP PRIMARY SCHOOL,Primary,-31.72399412,115.7615597,1019
Western Australia,WAIKIKI PRIMARY SCHOOL,Primary,-32.31926622,115.7621332,993
Western Australia,FOUNDATION CHRISTIAN COLLEGE,Primary,-32.52931617,115.7622888,1030
Western Australia,FOUNDATION CHRISTIAN COLLEGE,Secondary,-32.52931617,115.7622888,1030
Western Australia,HILLMAN PRIMARY SCHOOL,Primary,-32.28293177,115.762409,952
Western Australia,LAKELANDS PRIMARY SCHOOL,Primary,-32.47803782,115.7624628,988
Western Australia,MOSMAN PARK PRIMARY SCHOOL,Primary,-32.01149157,115.7629025,1147
Western Australia,COMET BAY COLLEGE,Secondary,-32.4158052,115.7629996,1013
Western Australia,KAPINARA PRIMARY SCHOOL,Primary,-31.92497253,115.7630083,1184
Western Australia,BELRIDGE SECONDARY COLLEGE,Secondary,-31.77038385,115.7631759,1015
Western Australia,SOUTH PADBURY PRIMARY SCHOOL,Primary,-31.81230095,115.7644063,1053
Western Australia,PRESBYTERIAN LADIES COLLEGE,Primary,-31.993592,115.764906,1111
Western Australia,PRESBYTERIAN LADIES COLLEGE,Secondary,-31.993592,115.764906,1111
Western Australia,WHITE GUM VALLEY PRIMARY SCHOOL,Primary,-32.05893654,115.764926,1099
Western Australia,CITY BEACH PRIMARY SCHOOL,Primary,-31.93538508,115.765126,1166
Western Australia,HOLY SPIRIT SCHOOL,Primary,-31.91694399,115.7652403,1163
Western Australia,KOORANA PRIMARY SCHOOL,Primary,-32.34292727,115.7653169,926
Western Australia,NORTH COTTESLOE PRIMARY SCHOOL,Primary,-31.98901491,115.7653421,1181
Western Australia,NANNUP DISTRICT HIGH SCHOOL,Secondary,-33.99015078,115.7655942,1006
Western Australia,ST MARY'S ANGLICAN GIRLS' SCHOOL,Primary,-31.87697112,115.766244,1158
Western Australia,ST MARY'S ANGLICAN GIRLS' SCHOOL,Secondary,-31.87697112,115.766244,1158
Western Australia,DEANMORE PRIMARY SCHOOL,Primary,-31.88323747,115.7666076,1119
Western Australia,ST JOHN'S SCHOOL,Primary,-31.89350925,115.7669125,1130
Western Australia,SCARBOROUGH PRIMARY SCHOOL,Primary,-31.89699135,115.7670648,1077
Western Australia,PADBURY CATHOLIC PRIMARY SCHOOL,Primary,-31.81657383,115.7671159,1119
Western Australia,DUNCRAIG SENIOR HIGH SCHOOL,Secondary,-31.82190527,115.767131,1073
Western Australia,RIVERSIDE PRIMARY SCHOOL,Primary,-32.5312506,115.7676587,942
Western Australia,IONA PRESENTATION COLLEGE,Primary,-32.00852636,115.7677349,1124
Western Australia,IONA PRESENTATION COLLEGE,Secondary,-32.00852636,115.7677349,1124
Western Australia,ST HILDA'S ANGLICAN SCHOOL FOR GIRLS,Primary,-32.005047,115.767812,1197
Western Australia,ST HILDA'S ANGLICAN SCHOOL FOR GIRLS,Secondary,-32.005047,115.767812,1197
Western Australia,ROCKINGHAM LAKES PRIMARY SCHOOL,Primary,-32.3575092,115.7680138,974
Western Australia,EDDYSTONE PRIMARY SCHOOL,Primary,-31.76706411,115.7690002,985
Western Australia,COMET BAY PRIMARY SCHOOL,Primary,-32.41132592,115.7694346,1014
Western Australia,RICHMOND PRIMARY SCHOOL,Primary,-32.03667364,115.7700352,1143
Western Australia,SWANBOURNE PRIMARY SCHOOL,Primary,-31.97300265,115.7703599,1145
Western Australia,WEMBLEY DOWNS PRIMARY SCHOOL,Primary,-31.91034618,115.7706072,1111
Western Australia,DUNCRAIG PRIMARY SCHOOL,Primary,-31.83197629,115.7707544,1094
Western Australia,WINTERFOLD PRIMARY SCHOOL,Primary,-32.07237013,115.7708899,1038
Western Australia,COOGEE PRIMARY SCHOOL,Primary,-32.12709335,115.7718242,1056
Western Australia,CARINE PRIMARY SCHOOL,Primary,-31.85137169,115.7725012,1137
Western Australia,CHRIST THE KING SCHOOL,Primary,-32.072343,115.773117,1063
Western Australia,SCOTCH COLLEGE,Primary,-31.98113329,115.7731945,1165
Western Australia,SCOTCH COLLEGE,Secondary,-31.98113329,115.7731945,1165
Western Australia,KERRY STREET COMMUNITY SCHOOL,Primary,-32.08253823,115.7737709,1043
Western Australia,POYNTER PRIMARY SCHOOL,Primary,-31.84204111,115.7743695,1126
Western Australia,FREMANTLE CHRISTIAN COLLEGE,Primary,-32.0843654,115.7751984,1028
Western Australia,FREMANTLE CHRISTIAN COLLEGE,Secondary,-32.0843654,115.7751984,1028
Western Australia,METHODIST LADIES' COLLEGE,Primary,-31.98701169,115.7755403,1150
Western Australia,METHODIST LADIES' COLLEGE,Secondary,-31.98701169,115.7755403,1150
Western Australia,CARINE SENIOR HIGH SCHOOL,Secondary,-31.85299735,115.775848,1088
Western Australia,KARRINYUP PRIMARY SCHOOL,Primary,-31.86967092,115.7762892,1122
Western Australia,MATER DEI COLLEGE,Secondary,-31.76466034,115.7765193,1055
Western Australia,CHRIST CHURCH GRAMMAR SCHOOL,Primary,-31.98546117,115.7769868,1180
Western Australia,CHRIST CHURCH GRAMMAR SCHOOL,Secondary,-31.98546117,115.7769868,1180
Western Australia,INTERNATIONAL SCHOOL OF WESTERN AUSTRALIA,Primary,-31.8985,115.77762,1182
Western Australia,INTERNATIONAL SCHOOL OF WESTERN AUSTRALIA,Secondary,-31.8985,115.77762,1182
Western Australia,DOUBLEVIEW PRIMARY SCHOOL,Primary,-31.89845085,115.7776617,1105
Western Australia,OUR LADY OF GOOD COUNSEL SCHOOL,Primary,-31.88071403,115.7778009,1099
Western Australia,PORT SCHOOL,Secondary,-32.08300587,115.7782714,936
Western Australia,PHOENIX PRIMARY SCHOOL,Primary,-32.09257757,115.7794442,1016
Western Australia,EDGEWATER PRIMARY SCHOOL,Primary,-31.76289339,115.7804131,1068
Western Australia,ST STEPHEN'S SCHOOL,Primary,-31.8192748,115.7806424,1118
Western Australia,ST STEPHEN'S SCHOOL,Secondary,-31.8192748,115.7806424,1118
Western Australia,NEWBOROUGH PRIMARY SCHOOL,Primary,-31.88428623,115.7810971,1077
Western Australia,GLENGARRY PRIMARY SCHOOL,Primary,-31.82816781,115.7820552,1104
Western Australia,FRESHWATER BAY PRIMARY SCHOOL,Primary,-31.98588984,115.7823097,1170
Western Australia,ST JEROME'S PRIMARY SCHOOL,Primary,-32.121502,115.782659,1046
Western Australia,MOUNT CLAREMONT PRIMARY SCHOOL,Primary,-31.96810951,115.7826727,1144
Western Australia,HALE SCHOOL,Primary,-31.91232249,115.7837828,1165
Western Australia,HALE SCHOOL,Secondary,-31.91232249,115.7837828,1165
Western Australia,HILTON PRIMARY SCHOOL,Primary,-32.06805492,115.7841355,1034
Western Australia,SPEARWOOD ALTERNATIVE SCHOOL,Primary,-32.10779115,115.7843999,1115
Western Australia,JOHN XXIII COLLEGE,Primary,-31.9599189,115.7847988,1170
Western Australia,JOHN XXIII COLLEGE,Secondary,-31.9599189,115.7847988,1170
Western Australia,SOUTHWELL PRIMARY SCHOOL,Primary,-32.09025841,115.7850833,812
Western Australia,PALMYRA PRIMARY SCHOOL,Primary,-32.04528094,115.7853129,1086
Western Australia,CARRAMAR PRIMARY SCHOOL,Primary,-31.71147916,115.7857211,1041
Western Australia,BICTON PRIMARY SCHOOL,Primary,-32.03272881,115.786548,1111
Western Australia,SPEARWOOD PRIMARY SCHOOL,Primary,-32.10148403,115.7865958,961
Western Australia,OUR LADY OF FATIMA SCHOOL,Primary,-32.03860078,115.78661,1129
Western Australia,NEWMAN COLLEGE,Primary,-31.9231958,115.7873551,1114
Western Australia,NEWMAN COLLEGE,Secondary,-31.9231958,115.7873551,1114
Western Australia,DAVALLIA PRIMARY SCHOOL,Primary,-31.84104283,115.7874618,1112
Western Australia,HOLY ROSARY SCHOOL,Primary,-31.90928598,115.7874998,1134
Western Australia,NORTH WOODVALE PRIMARY SCHOOL,Primary,-31.78461512,115.7883764,1093
Western Australia,CREANEY PRIMARY SCHOOL,Primary,-31.80400875,115.7885224,1070
Western Australia,OUR LADY OF MOUNT CARMEL SCHOOL,Primary,-32.07276796,115.7888671,1073
Western Australia,ST THOMAS' PRIMARY SCHOOL,Primary,-31.97747472,115.7889843,1167
Western Australia,NEWTON PRIMARY SCHOOL,Primary,-32.11215987,115.7890148,996
Western Australia,EAST HAMILTON HILL PRIMARY SCHOOL,Primary,-32.07753718,115.7892828,1026
Western Australia,WOODLANDS PRIMARY SCHOOL,Primary,-31.91098138,115.7898281,1127
Western Australia,YULUMA PRIMARY SCHOOL,Primary,-31.89226761,115.7899897,1033
Western Australia,CHURCHLANDS SENIOR HIGH SCHOOL,Secondary,-31.91728978,115.7899902,1118
Western Australia,DALMAIN PRIMARY SCHOOL,Primary,-31.81392422,115.7907121,1071
Western Australia,ST DOMINIC'S SCHOOL,Primary,-31.89441457,115.7909199,1137
Western Australia,FLOREAT PARK PRIMARY SCHOOL,Primary,-31.936844,115.79122,1184
Western Australia,GREENWOOD COLLEGE,Secondary,-31.82628484,115.7914439,1032
Western Australia,WEST GREENWOOD PRIMARY SCHOOL,Primary,-31.82628484,115.7914439,1058
Western Australia,LIWARA CATHOLIC PRIMARY SCHOOL,Primary,-31.83328555,115.7918194,1101
Western Australia,MOERLINA SCHOOL,Primary,-31.96775079,115.792153,1123
Western Australia,TAPPING PRIMARY SCHOOL,Primary,-31.71523945,115.7922496,1026
Western Australia,QUINTILIAN SCHOOL,Primary,-31.96696077,115.7923007,1183
Western Australia,SPRING HILL PRIMARY SCHOOL,Primary,-31.7226147,115.7932625,1028
Western Australia,SETON CATHOLIC COLLEGE,Secondary,-32.07269529,115.7933707,1038
Western Australia,WOODVALE PRIMARY SCHOOL,Primary,-31.79431516,115.7936948,1085
Western Australia,CHURCHLANDS PRIMARY SCHOOL,Primary,-31.92636369,115.794652,1155
Western Australia,SANTA MARIA COLLEGE,Secondary,-32.018614,115.795823,1117
Western Australia,MOTHER TERESA CATHOLIC COLLEGE,Primary,-32.36141513,115.7970969,1053
Western Australia,SOUTH COOGEE PRIMARY SCHOOL,Primary,-32.12961319,115.7973328,1007
Western Australia,HAWKER PARK PRIMARY SCHOOL,Primary,-31.84054196,115.7974927,1090
Western Australia,DALKEITH PRIMARY SCHOOL,Primary,-31.99644115,115.797872,1195
Western Australia,LAKE GWELUP PRIMARY SCHOOL,Primary,-31.87143628,115.797937,1119
Western Australia,WOODVALE SECONDARY COLLEGE,Secondary,-31.79154969,115.7994712,1064
Western Australia,WANNEROO PRIMARY SCHOOL,Primary,-31.75136276,115.7998794,981
Western Australia,TRANBY COLLEGE,Primary,-32.3405703,115.8002428,1066
Western Australia,TRANBY COLLEGE,Secondary,-32.3405703,115.8002428,1066
Western Australia,SETTLERS PRIMARY SCHOOL,Primary,-32.34342663,115.8006798,1007
Western Australia,ROCKINGHAM JOHN CALVIN SCHOOL,Primary,-32.30603447,115.8010505,1017
Western Australia,MEL MARIA CATHOLIC PRIMARY SCHOOL,Primary,-32.02710468,115.8012258,1141
Western Australia,GOOLLELAL PRIMARY SCHOOL,Primary,-31.81486804,115.8013853,1085
Western Australia,HALIDON PRIMARY SCHOOL,Primary,-31.80783809,115.801427,1061
Western Australia,ATTADALE PRIMARY SCHOOL,Primary,-32.02544682,115.8018145,1143
Western Australia,SAMSON PRIMARY SCHOOL,Primary,-32.07233538,115.8020699,1049
Western Australia,SHENTON COLLEGE,Secondary,-31.95969986,115.803008,1159
Western Australia,MEDINA PRIMARY SCHOOL,Primary,-32.23582307,115.803711,906
Western Australia,ST ANTHONY'S SCHOOL,Primary,-31.74897887,115.8037982,1049
Western Australia,CARALEE COMMUNITY SCHOOL,Primary,-32.05149344,115.8043461,970
Western Australia,LEDA PRIMARY SCHOOL,Primary,-32.26049532,115.8048608,938
Western Australia,ST JOHN PAUL II CATHOLIC PRIMARY SCHOOL,Primary,-31.69517618,115.8054016,1000
Western Australia,ST LUKE'S CATHOLIC PRIMARY SCHOOL,Primary,-31.80201996,115.8054599,1095
Western Australia,MELVILLE SENIOR HIGH SCHOOL,Secondary,-32.04631125,115.8054613,1065
Western Australia,LORETO NEDLANDS,Primary,-31.98464523,115.8060593,1172
Western Australia,AUSTIN COVE BAPTIST COLLEGE,Primary,-32.59324476,115.8065154,1015
Western Australia,AUSTIN COVE BAPTIST COLLEGE,Secondary,-32.59324476,115.8065154,1015
Western Australia,MELVILLE PRIMARY SCHOOL,Primary,-32.03770545,115.8065741,1115
Western Australia,HOLLYWOOD PRIMARY SCHOOL,Primary,-31.96944536,115.8072695,1165
Western Australia,GLENDALE PRIMARY SCHOOL,Primary,-31.84933302,115.8076235,1038
Western Australia,THE MONTESSORI SCHOOL,Primary,-31.81228862,115.8077784,1109
Western Australia,THE MONTESSORI SCHOOL,Secondary,-31.81228862,115.8077784,1109
Western Australia,WEST BALCATTA PRIMARY SCHOOL,Primary,-31.87268066,115.8087826,1078
Western Australia,COOLBELLUP COMMUNITY SCHOOL,Primary,-32.08185386,115.8088051,965
Western Australia,BANKSIA GROVE PRIMARY SCHOOL,Primary,-31.70254405,115.8089621,962
Western Australia,GREENWOOD PRIMARY SCHOOL,Primary,-31.82890115,115.8090201,1019
Western Australia,JOLIMONT PRIMARY SCHOOL,Primary,-31.94879873,115.8093909,1157
Western Australia,WEMBLEY PRIMARY SCHOOL,Primary,-31.9350158,115.8097294,1172
Western Australia,BALDIVIS GARDENS PRIMARY SCHOOL,Primary,-32.300823,115.810062,991
Western Australia,CALISTA PRIMARY SCHOOL,Primary,-32.24514843,115.8106046,947
Western Australia,NEDLANDS PRIMARY SCHOOL,Primary,-31.98480552,115.8128349,1183
Western Australia,NORTH LAKE SENIOR CAMPUS,Secondary,-32.07350132,115.8137439,1026
Western Australia,TUART RISE PRIMARY SCHOOL,Primary,-32.35318209,115.8141819,992
Western Australia,PETER CARNLEY ANGLICAN COMMUNITY SCHOOL,Primary,-32.25710348,115.8149145,1056
Western Australia,PETER CARNLEY ANGLICAN COMMUNITY SCHOOL,Secondary,-32.25710348,115.8149145,1056
Western Australia,ORELIA PRIMARY SCHOOL,Primary,-32.23696167,115.8152522,927
Western Australia,RIVER VALLEY PRIMARY SCHOOL,Primary,-33.30851243,115.8152863,985
Western Australia,WARWICK SENIOR HIGH SCHOOL,Secondary,-31.83867535,115.8154291,972
Western Australia,ROSALIE PRIMARY SCHOOL,Primary,-31.96165277,115.8157114,1181
Western Australia,EAST WANNEROO PRIMARY SCHOOL,Primary,-31.7568505,115.8168149,997
Western Australia,HOCKING PRIMARY SCHOOL,Primary,-31.76973684,115.8168776,1046
Western Australia,PEARSALL PRIMARY SCHOOL,Primary,-31.78076976,115.8170137,1055
Western Australia,CHRYSALIS MONTESSORI SCHOOL,Primary,-31.91748633,115.8172243,1174
Western Australia,BALDIVIS PRIMARY SCHOOL,Primary,-32.30718679,115.8174722,989
Western Australia,MAKYBE RISE PRIMARY SCHOOL,Primary,-32.34435624,115.8175271,1020
Western Australia,PERTH WALDORF SCHOOL,Primary,-32.09219046,115.8176585,1105
Western Australia,PERTH WALDORF SCHOOL,Secondary,-32.09219046,115.8176585,1105
Western Australia,ST MARY'S SCHOOL,Primary,-33.57519912,115.818426,1021
Western Australia,EAST HAMERSLEY PRIMARY SCHOOL,Primary,-31.84763444,115.8186051,1063
Western Australia,YANGEBUP PRIMARY SCHOOL,Primary,-32.11921993,115.8196116,967
Western Australia,BEELIAR PRIMARY SCHOOL,Primary,-32.13297396,115.8207228,1005
Western Australia,DONNYBROOK DISTRICT HIGH SCHOOL,Secondary,-33.57479874,115.8209925,963
Western Australia,LAKE MONGER PRIMARY SCHOOL,Primary,-31.92381333,115.8213089,1073
Western Australia,TAKARI PRIMARY SCHOOL,Primary,-31.8688741,115.8217073,1027
Western Australia,SUBIACO PRIMARY SCHOOL,Primary,-31.95080163,115.8220433,1176
Western Australia,TELETHON SPEECH & HEARING,Primary,-31.92384064,115.8231847,1087
Western Australia,BOLD PARK COMMUNITY SCHOOL,Primary,-31.92384064,115.8231847,1116
Western Australia,BOLD PARK COMMUNITY SCHOOL,Secondary,-31.92384064,115.8231847,1116
Western Australia,KARDINYA PRIMARY SCHOOL,Primary,-32.06231235,115.8237277,1070
Western Australia,OSBORNE PRIMARY SCHOOL,Primary,-31.89945179,115.8248986,1039
Western Australia,DIVINE MERCY COLLEGE,Primary,-32.12468637,115.8251697,1056
Western Australia,DIVINE MERCY COLLEGE,Secondary,-32.12468637,115.8251697,1056
Western Australia,ST VINCENT'S SCHOOL,Primary,-32.25275368,115.8260441,1042
Western Australia,MATER CHRISTI CATHOLIC PRIMARY SCHOOL,Primary,-32.12534242,115.8263263,1069
Western Australia,BOORAGOON PRIMARY SCHOOL,Primary,-32.03553443,115.8264595,1116
Western Australia,BALCATTA PRIMARY SCHOOL,Primary,-31.88093054,115.8272729,1047
Western Australia,MARANGAROO PRIMARY SCHOOL,Primary,-31.82848696,115.8275899,970
Western Australia,ST LAWRENCE PRIMARY SCHOOL,Primary,-31.879112,115.827758,1052
Western Australia,HOPE CHRISTIAN COLLEGE,Primary,-33.29288692,115.8278834,1024
Western Australia,HOPE CHRISTIAN COLLEGE,Secondary,-33.29288692,115.8278834,1024
Western Australia,BALDIVIS SECONDARY COLLEGE,Secondary,-32.334099,115.828418,987
Western Australia,MADELEY PRIMARY SCHOOL,Primary,-31.80675303,115.8289632,1056
Western Australia,KENNEDY BAPTIST COLLEGE,Secondary,-32.073356,115.829647,1097
Western Australia,RIVERGUMS PRIMARY SCHOOL,Primary,-32.335835,115.829796,995
Western Australia,ST KIERAN CATHOLIC PRIMARY SCHOOL,Primary,-31.90272667,115.8315419,1053
Western Australia,WINTHROP PRIMARY SCHOOL,Primary,-32.05464084,115.832817,1137
Western Australia,WEST LEEDERVILLE PRIMARY SCHOOL,Primary,-31.93928667,115.8329394,1166
Western Australia,SERVITE COLLEGE,Secondary,-31.90270449,115.8336415,1032
Western Australia,BRUNSWICK JUNCTION PRIMARY SCHOOL,Primary,-33.2517339,115.8341389,853
Western Australia,NORTH BALGA PRIMARY SCHOOL,Primary,-31.85209949,115.8342576,907
Western Australia,SOUTH LAKE PRIMARY SCHOOL,Primary,-32.10593471,115.8345008,936
Western Australia,ARDROSS PRIMARY SCHOOL,Primary,-32.0274405,115.8346577,1144
Western Australia,APPLECROSS SENIOR HIGH SCHOOL,Secondary,-32.029376,115.83509,1111
Western Australia,MOUNT HAWTHORN PRIMARY SCHOOL,Primary,-31.91812712,115.8354103,1140
Western Australia,NORTH PARMELIA PRIMARY SCHOOL,Primary,-32.23643544,115.8359231,935
Western Australia,PERTH MODERN SCHOOL,Secondary,-31.94506602,115.8363958,1239
Western Australia,HUDSON PARK PRIMARY SCHOOL,Primary,-31.83944795,115.8373291,947
Western Australia,KINGSWAY CHRISTIAN COLLEGE,Primary,-31.81156717,115.8374044,1121
Western Australia,ST MICHAEL'S SCHOOL,Primary,-33.25458537,115.837794,1027
Western Australia,BLUE GUM MONTESSORI SCHOOL INC,Primary,-32.08519543,115.838553,1182
Western Australia,OUR LADY OF MERCY PRIMARY SCHOOL,Primary,-31.83735378,115.8389984,991
Western Australia,THE KING'S COLLEGE,Primary,-32.25439916,115.839073,1025
Western Australia,THE KING'S COLLEGE,Secondary,-32.25439916,115.839073,1025
Western Australia,BIBRA LAKE PRIMARY SCHOOL,Primary,-32.09409186,115.8391505,1019
Western Australia,ARANMORE CATHOLIC PRIMARY SCHOOL,Primary,-31.92790363,115.8392341,1102
Western Australia,ST BENEDICT'S SCHOOL,Primary,-32.018476,115.839433,1139
Western Australia,APPLECROSS PRIMARY SCHOOL,Primary,-32.01084327,115.8395984,1147
Western Australia,NOLLAMARA PRIMARY SCHOOL,Primary,-31.88436343,115.839641,944
Western Australia,WEST COAST STEINER SCHOOL,Primary,-31.88348064,115.83986,1091
Western Australia,EMMANUEL CATHOLIC COLLEGE,Secondary,-32.12857818,115.8400696,1036
Western Australia,TUART HILL PRIMARY SCHOOL,Primary,-31.9013793,115.8408151,1057
Western Australia,GIRRAWHEEN SENIOR HIGH SCHOOL,Secondary,-31.83648977,115.8418703,907
Western Australia,CORPUS CHRISTI COLLEGE,Secondary,-32.05699614,115.8429056,1098
Western Australia,YIDARRA CATHOLIC PRIMARY SCHOOL,Primary,-32.05699615,115.8429057,1129
Western Australia,ARANMORE CATHOLIC COLLEGE,Secondary,-31.92706854,115.8431695,991
Western Australia,HAMMOND PARK PRIMARY SCHOOL,Primary,-32.16737931,115.8435325,1066
Western Australia,BERTRAM PRIMARY SCHOOL,Primary,-32.24665386,115.843541,999
Western Australia,ASHDALE PRIMARY SCHOOL,Primary,-31.80875751,115.8437538,1026
Western Australia,ST DENIS SCHOOL,Primary,-31.90973888,115.8443814,1111
Western Australia,WARRIAPENDI PRIMARY SCHOOL,Primary,-31.85387667,115.8446009,947
Western Australia,RAWLINSON PRIMARY SCHOOL,Primary,-31.82748385,115.8447459,961
Western Australia,BALGA PRIMARY SCHOOL,Primary,-31.86059553,115.8448001,907
Western Australia,MOUNT PLEASANT PRIMARY SCHOOL,Primary,-32.03020235,115.8453213,1128
Western Australia,BATEMAN PRIMARY SCHOOL,Primary,-32.05066001,115.8453415,1118
Western Australia,JANDAKOT PRIMARY SCHOOL,Primary,-32.13857194,115.8458419,1036
Western Australia,LAKELAND SENIOR HIGH SCHOOL,Secondary,-32.10905514,115.8459137,951
Western Australia,BALGA SENIOR HIGH SCHOOL,Secondary,-31.85134146,115.8465042,881
Western Australia,WELLARD PRIMARY SCHOOL,Primary,-32.262238,115.846959,1015
Western Australia,BRENTWOOD PRIMARY SCHOOL,Primary,-32.04149754,115.847177,1103
Western Australia,MAJELLA CATHOLIC PRIMARY SCHOOL,Primary,-31.85601373,115.8477866,946
Western Australia,EMMANUEL CHRISTIAN COMMUNITY SCHOOL,Primary,-31.84620429,115.8482622,980
Western Australia,EMMANUEL CHRISTIAN COMMUNITY SCHOOL,Secondary,-31.84620429,115.8482622,980
Western Australia,ST GERARD'S PRIMARY SCHOOL,Primary,-31.869729,115.848544,999
Western Australia,HAMMOND PARK CATHOLIC PRIMARY SCHOOL,Primary,-32.17296139,115.8487346,1078
Western Australia,OUR LADY OF LOURDES SCHOOL,Primary,-31.88782934,115.8488556,1061
Western Australia,SUCCESS PRIMARY SCHOOL,Primary,-32.1525476,115.8495396,1051
Western Australia,KYILLA PRIMARY SCHOOL,Primary,-31.91907193,115.851731,1129
Western Australia,ROSEWORTH PRIMARY SCHOOL,Primary,-31.84063994,115.8524975,910
Western Australia,WEST LEEMING PRIMARY SCHOOL,Primary,-32.07026853,115.8551611,1103
Western Australia,NORTH PERTH PRIMARY SCHOOL,Primary,-31.93042383,115.8560039,1137
Western Australia,LEEMING SENIOR HIGH SCHOOL,Secondary,-32.07467304,115.8564902,1071
Western Australia,JOHN SEPTIMUS ROE ANGLICAN COMMUNITY SCHOOL,Primary,-31.85936631,115.8567055,1070
Western Australia,JOHN SEPTIMUS ROE ANGLICAN COMMUNITY SCHOOL,Secondary,-31.85936631,115.8567055,1070
Western Australia,ST GEORGE'S ANGLICAN GRAMMAR SCHOOL,Secondary,-31.95409073,115.8570957,1148
Western Australia,MERCY COLLEGE,Primary,-31.84725114,115.8575544,1010
Western Australia,MERCY COLLEGE,Secondary,-31.84725114,115.8575544,1010
Western Australia,COOLBINIA PRIMARY SCHOOL,Primary,-31.91309496,115.8590308,1141
Western Australia,YOKINE PRIMARY SCHOOL,Primary,-31.900715,115.8593435,1047
Western Australia,SOUTH PERTH PRIMARY SCHOOL,Primary,-31.9812379,115.8593816,1135
Western Australia,ST COLUMBA'S CATHOLIC PRIMARY SCHOOL,Primary,-31.97839416,115.8600018,1160
Western Australia,BULL CREEK PRIMARY SCHOOL,Primary,-32.06013661,115.8610064,1126
Western Australia,COMO PRIMARY SCHOOL,Primary,-31.99709826,115.8613447,1132
Western Australia,HONEYWOOD PRIMARY SCHOOL,Primary,-32.1965,115.86159,1040
Western Australia,AQUINAS COLLEGE,Primary,-32.02617519,115.8617538,1023
Western Australia,AQUINAS COLLEGE,Secondary,-32.02617519,115.8617538,1023
Western Australia,KOONDOOLA PRIMARY SCHOOL,Primary,-31.83872675,115.8619753,863
Western Australia,CARMEL SCHOOL,Primary,-31.89910743,115.8620749,1137
Western Australia,CARMEL SCHOOL,Secondary,-31.89910743,115.8620749,1137
Western Australia,DRYANDRA PRIMARY SCHOOL,Primary,-31.85529627,115.8623522,903
Western Australia,AUBIN GROVE PRIMARY SCHOOL,Primary,-32.17306065,115.8623522,1068
Western Australia,LANDSDALE PRIMARY SCHOOL,Primary,-31.80328614,115.8627751,1040
Western Australia,LEEMING PRIMARY SCHOOL,Primary,-32.07551121,115.862877,1093
Western Australia,ST PIUS X CATHOLIC SCHOOL,Primary,-32.01686406,115.8634264,1120
Western Australia,ATWELL COLLEGE,Secondary,-32.14395682,115.8641462,1012
Western Australia,ST PAUL'S PRIMARY SCHOOL,Primary,-31.92535899,115.8642209,1158
Western Australia,HARMONY PRIMARY SCHOOL,Primary,-32.15122168,115.8645645,1062
Western Australia,SUTHERLAND DIANELLA PRIMARY SCHOOL,Primary,-31.89361305,115.8646325,1063
Western Australia,MANNING PRIMARY SCHOOL,Primary,-32.01527547,115.8650557,1121
Western Australia,WESLEY COLLEGE,Primary,-31.97995555,115.865934,1143
Western Australia,WESLEY COLLEGE,Secondary,-31.97995555,115.865934,1143
Western Australia,DIANELLA HEIGHTS PRIMARY SCHOOL,Primary,-31.88273396,115.8661514,1091
Western Australia,HIGHGATE PRIMARY SCHOOL,Primary,-31.94074584,115.8662509,1120
Western Australia,PINJARRA PRIMARY SCHOOL,Primary,-32.628223,115.866421,963
Western Australia,ROSSMOYNE PRIMARY SCHOOL,Primary,-32.04061087,115.8667422,1140
Western Australia,ALL SAINTS' COLLEGE,Primary,-32.04946998,115.867023,1154
Western Australia,ALL SAINTS' COLLEGE,Secondary,-32.04946998,115.867023,1154
Western Australia,MERCEDES COLLEGE,Secondary,-31.95623304,115.8670832,1116
Western Australia,LANDSDALE CHRISTIAN SCHOOL,Primary,-31.80678912,115.8671747,1036
Western Australia,ATWELL PRIMARY SCHOOL,Primary,-32.13527555,115.867828,1056
Western Australia,WADDINGTON PRIMARY SCHOOL,Primary,-31.84424333,115.8681525,916
Western Australia,SACRED HEART PRIMARY SCHOOL,Primary,-31.93732021,115.8682173,1135
Western Australia,OBERTHUR PRIMARY SCHOOL,Primary,-32.05976013,115.8686381,1171
Western Australia,MOUNT LAWLEY SENIOR HIGH SCHOOL,Secondary,-31.92122258,115.8697493,1101
Western Australia,ALINJARRA PRIMARY SCHOOL,Primary,-31.82962571,115.8701402,994
Western Australia,ROSSMOYNE SENIOR HIGH SCHOOL,Secondary,-32.04626472,115.8705457,1121
Western Australia,COMO SECONDARY COLLEGE,Secondary,-32.00366439,115.8711551,1074
Western Australia,PENRHOS COLLEGE,Primary,-31.99743072,115.8725394,1051
Western Australia,PENRHOS COLLEGE,Secondary,-31.99743072,115.8725394,1051
Western Australia,PINJARRA SENIOR HIGH SCHOOL,Secondary,-32.63343063,115.8726662,963
Western Australia,OUR LADY'S ASSUMPTION SCHOOL,Primary,-31.8969369,115.8727036,1077
Western Australia,COLLIER PRIMARY SCHOOL,Primary,-31.99132283,115.8732078,1088
Western Australia,ST JOSEPH'S CATHOLIC PRIMARY SCHOOL,Primary,-32.6307843,115.8733555,983
Western Australia,BOYARE PRIMARY SCHOOL,Primary,-31.85724948,115.8734207,932
Western Australia,CURTIN PRIMARY SCHOOL,Primary,-32.00690937,115.8737611,995
Western Australia,ST ANDREW'S GRAMMAR,Primary,-31.87118268,115.8741054,1078
Western Australia,ST ANDREW'S GRAMMAR,Secondary,-31.87118268,115.8741054,1078
Western Australia,AUSTRALIAN ISLAMIC COLLEGE - NORTH OF THE RIVER,Primary,-31.90293601,115.8744467,972
Western Australia,CARNABY RISE PRIMARY SCHOOL,Primary,-31.81744,115.874989,1039
Western Australia,BANKSIA PARK PRIMARY SCHOOL,Primary,-32.07166263,115.8754583,1091
Western Australia,PERTH COLLEGE,Primary,-31.93117853,115.8754809,1153
Western Australia,PERTH COLLEGE,Secondary,-31.93117853,115.8754809,1153
Western Australia,MOUNT LAWLEY PRIMARY SCHOOL,Primary,-31.9257564,115.8764441,1123
Western Australia,NORTH MORLEY PRIMARY SCHOOL,Primary,-31.87846471,115.878515,1032
Western Australia,WILLETTON SENIOR HIGH SCHOOL,Secondary,-32.06131317,115.8792246,1117
Western Australia,BURRENDAH PRIMARY SCHOOL,Primary,-32.05988334,115.8805782,1125
Western Australia,ILLAWARRA PRIMARY SCHOOL,Primary,-31.8289464,115.8817576,996
Western Australia,TRINITY COLLEGE,Secondary,-31.96013472,115.8825766,1113
Western Australia,WILLETTON PRIMARY SCHOOL,Primary,-32.0491836,115.8826792,1127
Western Australia,KENSINGTON PRIMARY SCHOOL,Primary,-31.98071268,115.8833484,1128
Western Australia,MORLEY SENIOR HIGH SCHOOL,Secondary,-31.8737169,115.8836692,1009
Western Australia,ST PETER'S PRIMARY SCHOOL,Primary,-31.91205537,115.8849241,1111
Western Australia,SHELLEY PRIMARY SCHOOL,Primary,-32.03209413,115.8857593,1120
Western Australia,WEST MORLEY PRIMARY SCHOOL,Primary,-31.89043143,115.8863854,1018
Western Australia,INGLEWOOD PRIMARY SCHOOL,Primary,-31.91722662,115.8864466,1118
Western Australia,VICTORIA PARK CHRISTIAN SCHOOL,Primary,-31.97105458,115.8888111,1047
Western Australia,REGENT COLLEGE,Primary,-31.97177194,115.889552,1165
Western Australia,INFANT JESUS SCHOOL,Primary,-31.89329786,115.8895814,1081
Western Australia,CAMBOON PRIMARY SCHOOL,Primary,-31.87744461,115.8910542,1035
Western Australia,ST ANNE'S SCHOOL,Primary,-33.08300334,115.8913206,1022
Western Australia,KIRUP PRIMARY SCHOOL,Primary,-33.705302,115.891555,980
Western Australia,ORANA CATHOLIC PRIMARY SCHOOL,Primary,-32.04434376,115.8921767,1121
Western Australia,VICTORIA PARK PRIMARY SCHOOL,Primary,-31.97137092,115.8922127,1136
Western Australia,BALLAJURA PRIMARY SCHOOL,Primary,-31.83593382,115.892303,1016
Western Australia,KENT STREET SENIOR HIGH SCHOOL,Secondary,-31.98570399,115.8926602,1023
Western Australia,CLONTARF ABORIGINAL COLLEGE,Secondary,-32.01565323,115.8929678,696
Western Australia,CARNAMAH DISTRICT HIGH SCHOOL,Secondary,-29.68727976,115.893099,958
Western Australia,BALLAJURA COMMUNITY COLLEGE,Secondary,-31.84474671,115.8934345,977
Western Australia,CARCOOLA PRIMARY SCHOOL,Primary,-32.605769,115.893504,948
Western Australia,QUEEN OF APOSTLES SCHOOL,Primary,-32.02991532,115.8939911,1112
Western Australia,HARVEY PRIMARY SCHOOL,Primary,-33.078014,115.895078,947
Western Australia,MORLEY PRIMARY SCHOOL,Primary,-31.89182974,115.8956006,998
Western Australia,MARY MACKILLOP CATHOLIC COMMUNITY PRIMARY SCHOOL,Primary,-31.84525179,115.8981415,1030
Western Australia,ROSTRATA PRIMARY SCHOOL,Primary,-32.05119357,115.8981793,1129
Western Australia,URSULA FRAYNE CATHOLIC COLLEGE,Primary,-31.97297817,115.8990335,1097
Western Australia,URSULA FRAYNE CATHOLIC COLLEGE,Secondary,-31.97297817,115.8990335,1097
Western Australia,RIVERTON PRIMARY SCHOOL,Primary,-32.03510531,115.9002281,1119
Western Australia,CHISHOLM CATHOLIC COLLEGE,Secondary,-31.91151257,115.9005647,1070
Western Australia,JOHN FORREST SECONDARY COLLEGE,Secondary,-31.90416352,115.90089,1025
Western Australia,MILLEN PRIMARY SCHOOL,Primary,-31.99744377,115.9016519,1080
Western Australia,HILLCREST PRIMARY SCHOOL,Primary,-31.90983465,115.9030701,1008
Western Australia,YARLOOP PRIMARY SCHOOL,Primary,-32.96180388,115.9040424,927
Western Australia,MAYLANDS PENINSULA PRIMARY SCHOOL,Primary,-31.93257493,115.9046098,1087
Western Australia,ST AUGUSTINE'S SCHOOL,Primary,-31.9598035,115.9062413,1097
Western Australia,NORANDA PRIMARY SCHOOL,Primary,-31.87739706,115.9077996,1026
Western Australia,HARVEY SENIOR HIGH SCHOOL,Secondary,-33.08407299,115.9079627,935
Western Australia,EAST VICTORIA PARK PRIMARY SCHOOL,Primary,-31.97884722,115.9080897,1073
Western Australia,ST CLARE'S SCHOOL,Secondary,-31.9711354,115.9086158,960
Western Australia,LATHLAIN PRIMARY SCHOOL,Primary,-31.96963317,115.9087559,1073
Western Australia,EMBLETON PRIMARY SCHOOL,Primary,-31.90187965,115.909802,958
Western Australia,WELD SQUARE PRIMARY SCHOOL,Primary,-31.89096441,115.9098952,1035
Western Australia,SOUTH BALLAJURA PRIMARY SCHOOL,Primary,-31.84972479,115.9102807,936
Western Australia,ST COLUMBA'S SCHOOL,Primary,-31.922883,115.910649,1127
Western Australia,RANFORD PRIMARY SCHOOL,Primary,-32.09384295,115.9109302,1095
Western Australia,AL-HIDAYAH ISLAMIC SCHOOL,Primary,-32.01035814,115.9115641,1055
Western Australia,BENTLEY PRIMARY SCHOOL,Primary,-32.01035815,115.9115642,916
Western Australia,SANTA CLARA SCHOOL,Primary,-32.005938,115.911676,1066
Western Australia,WILSON PRIMARY SCHOOL,Primary,-32.01777093,115.911727,1035
Western Australia,BAYSWATER PRIMARY SCHOOL,Primary,-31.92081606,115.9117733,1097
Western Australia,ASPIRI PRIMARY SCHOOL,Primary,-32.138988,115.912209,1075
Western Australia,GINGIN DISTRICT HIGH SCHOOL,Secondary,-31.34427642,115.9123687,967
Western Australia,CANNING VALE PRIMARY SCHOOL,Primary,-32.0760558,115.9128115,1049
Western Australia,LYNWOOD SENIOR HIGH SCHOOL,Secondary,-32.04190909,115.9161296,980
Western Australia,PARKWOOD PRIMARY SCHOOL,Primary,-32.04190909,115.9161296,1029
Western Australia,HAMPTON PARK PRIMARY SCHOOL,Primary,-31.886679,115.916552,1000
Western Australia,PIARA WATERS PRIMARY SCHOOL,Primary,-32.12644247,115.9170126,1068
Western Australia,CAREY BAPTIST COLLEGE - FORRESTDALE,Primary,-32.16104802,115.9181942,1097
Western Australia,FOUNTAIN COLLEGE,Primary,-32.03648539,115.9200109,985
Western Australia,FOUNTAIN COLLEGE,Secondary,-32.03648539,115.9200109,985
Western Australia,RIVERVALE PRIMARY SCHOOL,Primary,-31.95884714,115.9204235,956
Western Australia,CARLISLE PRIMARY SCHOOL,Primary,-31.972706,115.921255,1030
Western Australia,ST JOSEPH'S SCHOOL,Primary,-32.84466984,115.922516,1001
Western Australia,CANNING VALE COLLEGE,Secondary,-32.08291838,115.9227838,1030
Western Australia,BELMONT PRIMARY SCHOOL,Primary,-31.94467587,115.9228256,1011
Western Australia,HAMPTON SENIOR HIGH SCHOOL,Secondary,-31.89085713,115.92693,979
Western Australia,WEST BEECHBORO PRIMARY SCHOOL,Primary,-31.87005345,115.9273699,990
Western Australia,BANNISTER CREEK PRIMARY SCHOOL,Primary,-32.0397245,115.9285022,1036
Western Australia,ST JOHN BOSCO COLLEGE,Primary,-32.14606715,115.9288773,1058
Western Australia,WAROONA DISTRICT HIGH SCHOOL,Secondary,-32.84501404,115.9294134,893
Western Australia,CAMPBELL PRIMARY SCHOOL,Primary,-32.08812075,115.9307582,1089
Western Australia,AUSTRALIAN ISLAMIC COLLEGE - KEWDALE,Primary,-31.97999061,115.9325273,985
Western Australia,AUSTRALIAN ISLAMIC COLLEGE - KEWDALE,Secondary,-31.97999061,115.9325273,985
Western Australia,CALADENIA PRIMARY SCHOOL,Primary,-32.07496451,115.932729,1098
Western Australia,ST EMILIE'S CATHOLIC PRIMARY SCHOOL,Primary,-32.08151946,115.932921,1089
Western Australia,BEECHBORO CHRISTIAN SCHOOL,Primary,-31.85664957,115.9340083,1097
Western Australia,BELMONT CITY COLLEGE,Secondary,-31.95889136,115.9344344,968
Western Australia,HARRISDALE SENIOR HIGH SCHOOL,Secondary,-32.127736,115.934521,1041
Western Australia,CLOVERDALE PRIMARY SCHOOL,Primary,-31.96091754,115.935021,981
Western Australia,KIARA COLLEGE,Secondary,-31.87744952,115.9350998,848
Western Australia,ST JUDE'S CATHOLIC SCHOOL,Primary,-32.04434722,115.9351485,1035
Western Australia,CAREY BAPTIST COLLEGE,Primary,-32.11159158,115.9355423,1097
Western Australia,CAREY BAPTIST COLLEGE,Secondary,-32.11159158,115.9355423,1097
Western Australia,BEECHBORO PRIMARY SCHOOL,Primary,-31.86780968,115.9357571,908
Western Australia,PROVIDENCE CHRISTIAN COLLEGE,Primary,-32.09974606,115.9366941,1090
Western Australia,PROVIDENCE CHRISTIAN COLLEGE,Secondary,-32.09974606,115.9366941,1090
Western Australia,CANNINGTON COMMUNITY COLLEGE,Secondary,-32.013947,115.9370814,959
Western Australia,LANGFORD ISLAMIC COLLEGE,Primary,-32.04605574,115.9371583,1098
Western Australia,LANGFORD ISLAMIC COLLEGE,Secondary,-32.04605574,115.9371583,1098
Western Australia,ANZAC TERRACE PRIMARY SCHOOL,Primary,-31.89719261,115.9372531,1026
Western Australia,HARRISDALE PRIMARY SCHOOL,Primary,-32.12523245,115.9379534,1067
Western Australia,ST JOSEPH'S SCHOOL,Primary,-32.00565787,115.9387308,1081
Western Australia,BROOKMAN PRIMARY SCHOOL,Primary,-32.03670459,115.9390727,930
Western Australia,ST NORBERT COLLEGE,Secondary,-32.00436432,115.9403443,1044
Western Australia,ASHFIELD PRIMARY SCHOOL,Primary,-31.91530992,115.9409018,945
Western Australia,NOTRE DAME CATHOLIC PRIMARY SCHOOL,Primary,-31.95653292,115.9411835,1087
Western Australia,SEVENOAKS SENIOR COLLEGE,Secondary,-32.01247925,115.9423052,976
Western Australia,CYRIL JACKSON SENIOR CAMPUS,Secondary,-31.91290966,115.9424646,985
Western Australia,GOOD SHEPHERD CATHOLIC SCHOOL,Primary,-31.88645235,115.9432801,1043
Western Australia,KEWDALE PRIMARY SCHOOL,Primary,-31.97574657,115.9436158,987
Western Australia,EXCELSIOR PRIMARY SCHOOL,Primary,-32.08181283,115.943661,1062
Western Australia,ST MARIA GORETTI'S CATHOLIC SCHOOL,Primary,-31.93908153,115.943776,1057
Western Australia,QUEENS PARK PRIMARY SCHOOL,Primary,-31.99859142,115.9444207,989
Western Australia,REDCLIFFE PRIMARY SCHOOL,Primary,-31.93492844,115.9444715,969
Western Australia,EDEN HILL PRIMARY SCHOOL,Primary,-31.89291076,115.9456049,1026
Western Australia,BLETCHLEY PARK PRIMARY SCHOOL,Primary,-32.10259536,115.9462328,1046
Western Australia,FAIRBRIDGE COLLEGE,Secondary,-32.60549898,115.9465216,965
Western Australia,BELMAY PRIMARY SCHOOL,Primary,-31.9507814,115.9466374,960
Western Australia,FORRESTDALE PRIMARY SCHOOL,Primary,-32.15362108,115.9485362,970
Western Australia,ST MICHAEL'S SCHOOL,Primary,-31.905456,115.949922,1086
Western Australia,FOREST CRESCENT PRIMARY SCHOOL,Primary,-32.07607019,115.950007,1018
Western Australia,EAST BEECHBORO PRIMARY SCHOOL,Primary,-31.87236969,115.9508182,982
Western Australia,YALE PRIMARY SCHOOL,Primary,-32.05058481,115.951374,981
Western Australia,LOCKRIDGE PRIMARY SCHOOL,Primary,-31.88279111,115.9515213,879
Western Australia,CASA MIA MONTESSORI COMMUNITY SCHOOL,Primary,-31.90308107,115.9519135,1169
Western Australia,BASSENDEAN PRIMARY SCHOOL,Primary,-31.90747284,115.9534451,1075
Western Australia,GIBBS STREET PRIMARY SCHOOL,Primary,-32.00835874,115.9537521,1037
Western Australia,SACRED HEART PRIMARY SCHOOL,Primary,-32.06789364,115.9565361,1031
Western Australia,BECKENHAM PRIMARY SCHOOL,Primary,-32.02408598,115.9573041,982
Western Australia,ELLENBROOK CHRISTIAN COLLEGE,Primary,-31.786783,115.959178,1043
Western Australia,ELLENBROOK CHRISTIAN COLLEGE,Secondary,-31.786783,115.959178,1043
Western Australia,SOUTHERN GROVE PRIMARY SCHOOL,Primary,-32.099314,115.959204,1049
Western Australia,THORNLIE SENIOR HIGH SCHOOL,Secondary,-32.06627622,115.959641,976
Western Australia,SOUTH THORNLIE PRIMARY SCHOOL,Primary,-32.06627622,115.959641,1006
Western Australia,AUSTRALIAN ISLAMIC COLLEGE - PERTH,Primary,-32.05402507,115.9611396,993
Western Australia,ARBOR GROVE PRIMARY SCHOOL,Primary,-31.77105084,115.962637,974
Western Australia,ELLENBROOK SECONDARY COLLEGE,Secondary,-31.78554916,115.9642807,986
Western Australia,THORNLIE PRIMARY SCHOOL,Primary,-32.05332144,115.9659731,930
Western Australia,COMMUNICARE ACADEMY,Secondary,-32.03746429,115.9676942,898
Western Australia,GUILDFORD PRIMARY SCHOOL,Primary,-31.90233645,115.9678061,1091
Western Australia,CAVERSHAM VALLEY PRIMARY SCHOOL,Primary,-31.867901,115.968879,1037
Western Australia,HUNTINGDALE PRIMARY SCHOOL,Primary,-32.07763465,115.9717011,976
Western Australia,RIVERLANDS MONTESSORI SCHOOL,Primary,-31.84721343,115.9721543,1065
Western Australia,HOLY CROSS COLLEGE,Primary,-31.773097,115.973832,1043
Western Australia,HOLY CROSS COLLEGE,Secondary,-31.773097,115.973832,1043
Western Australia,ELLENBROOK PRIMARY SCHOOL,Primary,-31.7926892,115.9747992,988
Western Australia,ELLEN STIRLING PRIMARY SCHOOL,Primary,-31.7702501,115.9750095,980
Western Australia,ST HELENA'S CATHOLIC PRIMARY SCHOOL,Primary,-31.79237522,115.9760116,1044
Western Australia,NORTH DANDALUP PRIMARY SCHOOL,Primary,-32.50889,115.977861,982
Western Australia,REHOBOTH CHRISTIAN COLLEGE,Primary,-32.03161911,115.977924,1114
Western Australia,REHOBOTH CHRISTIAN COLLEGE,Secondary,-32.03161911,115.977924,1114
Western Australia,WEST BYFORD PRIMARY SCHOOL,Primary,-32.21556274,115.9791197,1005
Western Australia,EAST KENWICK PRIMARY SCHOOL,Primary,-32.03172749,115.9796025,931
Western Australia,WIRRABIRRA PRIMARY SCHOOL,Primary,-32.07438712,115.979617,938
Western Australia,SOUTHERN RIVER COLLEGE,Secondary,-32.08559751,115.979918,937
Western Australia,MALVERN SPRINGS PRIMARY SCHOOL,Primary,-31.75782406,115.9799705,998
Western Australia,WOODLAND GROVE PRIMARY SCHOOL,Primary,-32.226282,115.98026,995
Western Australia,SERPENTINE PRIMARY SCHOOL,Primary,-32.36550354,115.981389,986
Western Australia,GUILDFORD GRAMMAR SCHOOL,Primary,-31.894036,115.981892,1091
Western Australia,BALINGUP PRIMARY SCHOOL,Primary,-33.78633822,115.9822069,1061
Western Australia,CAVERSHAM PRIMARY SCHOOL,Primary,-31.85860491,115.9831127,1037
Western Australia,WATTLE GROVE PRIMARY SCHOOL,Primary,-31.99728084,115.9833069,1073
Western Australia,WILLANDRA PRIMARY SCHOOL,Primary,-32.14274418,115.9841153,923
Western Australia,ASHBURTON DRIVE PRIMARY SCHOOL,Primary,-32.0862307,115.9841976,934
Western Australia,ST FRANCIS' SCHOOL,Secondary,-32.04608954,115.9843375,962
Western Australia,MUNDIJONG PRIMARY SCHOOL,Primary,-32.290913,115.984636,944
Western Australia,SWAN VALLEY ANGLICAN COMMUNITY SCHOOL,Primary,-31.79434482,115.9854516,1045
Western Australia,SWAN VALLEY ANGLICAN COMMUNITY SCHOOL,Secondary,-31.79434482,115.9854516,1045
Western Australia,MADDINGTON PRIMARY SCHOOL,Primary,-32.05485834,115.9868215,959
Western Australia,ST MUNCHIN'S CATHOLIC SCHOOL,Primary,-32.08196889,115.9873399,980
Western Australia,KELMSCOTT JOHN CALVIN SCHOOL,Primary,-32.11804455,115.9882917,1089
Western Australia,GOVERNOR STIRLING SENIOR HIGH SCHOOL,Secondary,-31.88893826,115.9888056,974
Western Australia,AVELEY PRIMARY SCHOOL,Primary,-31.79108088,115.9905586,1012
Western Australia,AVELEY NORTH PRIMARY SCHOOL,Primary,-31.778441,115.991854,990
Western Australia,CECIL ANDREWS COLLEGE,Secondary,-32.14118727,115.9918834,898
Western Australia,XAVIER CATHOLIC SCHOOL,Primary,-32.161224,115.991946,1027
Western Australia,BRAMFIELD PARK PRIMARY SCHOOL,Primary,-32.04680274,115.9950359,935
Western Australia,MATTHEW GIBNEY CATHOLIC PRIMARY SCHOOL,Primary,-31.93412329,115.9964275,1046
Western Australia,WOODBRIDGE PRIMARY SCHOOL,Primary,-31.89275174,115.9968219,1019
Western Australia,SEAFORTH PRIMARY SCHOOL,Primary,-32.08941297,115.9968236,901
Western Australia,SALVADO CATHOLIC COLLEGE,Primary,-32.22329713,115.9980619,1040
Western Australia,DALE CHRISTIAN SCHOOL,Primary,-32.15932611,115.9987357,1014
Western Australia,DALE CHRISTIAN SCHOOL,Secondary,-32.15932611,115.9987357,1014
Western Australia,GROVELANDS PRIMARY SCHOOL,Primary,-32.12023725,115.9990409,900
Western Australia,GWYNNE PARK PRIMARY SCHOOL,Primary,-32.1618132,115.999196,860
Western Australia,DAWSON PARK PRIMARY SCHOOL,Primary,-31.97788644,115.9999814,996
Western Australia,NEERIGEN BROOK PRIMARY SCHOOL,Primary,-32.15221389,116.0003603,898
Western Australia,CHALLIS COMMUNITY PRIMARY SCHOOL,Primary,-32.13924553,116.0006497,941
Western Australia,ST JOSEPH'S SCHOOL,Primary,-30.64061007,116.001419,970
Western Australia,HELENA RIVER STEINER SCHOOL,Primary,-31.886829,116.001644,1041
Western Australia,BYFORD SECONDARY COLLEGE,Secondary,-32.22343162,116.0018793,989
Western Australia,HIGH WYCOMBE PRIMARY SCHOOL,Primary,-31.94106632,116.0021322,976
Western Australia,MOORA PRIMARY SCHOOL,Primary,-30.63256344,116.0033141,908
Western Australia,GOSNELLS PRIMARY SCHOOL,Primary,-32.07774624,116.0035224,966
Western Australia,EAST MADDINGTON PRIMARY SCHOOL,Primary,-32.05542616,116.0041234,945
Western Australia,WOODLUPINE PRIMARY SCHOOL,Primary,-31.98429135,116.0041348,982
Western Australia,LA SALLE COLLEGE,Secondary,-31.87856979,116.004411,1020
Western Australia,WESTFIELD PARK PRIMARY SCHOOL,Primary,-32.110255,116.005266,911
Western Australia,MARRI GROVE PRIMARY SCHOOL,Primary,-32.21239233,116.0055193,974
Western Australia,BYFORD JOHN CALVIN SCHOOL,Primary,-32.22411516,116.0057146,1078
Western Australia,MORAWA DISTRICT HIGH SCHOOL,Secondary,-29.21120142,116.0059132,907
Western Australia,YULE BROOK COLLEGE,Secondary,-32.04732734,116.0064617,865
Western Australia,EDNEY PRIMARY SCHOOL,Primary,-31.94734619,116.0069048,982
Western Australia,JOHN WOLLASTON ANGLICAN COMMUNITY SCHOOL,Primary,-32.104726,116.007834,1054
Western Australia,JOHN WOLLASTON ANGLICAN COMMUNITY SCHOOL,Secondary,-32.104726,116.007834,1054
Western Australia,ANNE HAMERSLEY PRIMARY SCHOOL,Primary,-31.74539641,116.0087173,995
Western Australia,FORRESTFIELD PRIMARY SCHOOL,Primary,-31.99141866,116.0088324,917
Western Australia,SOWILO COMMUNITY HIGH SCHOOL,Secondary,-32.13104805,116.0098146,955
Western Australia,DARLING RANGE SPORTS COLLEGE,Secondary,-31.97566063,116.0108597,976
Western Australia,KELMSCOTT SENIOR HIGH SCHOOL,Secondary,-32.12147619,116.0110534,983
Western Australia,SWAN CHRISTIAN COLLEGE,Primary,-31.85830659,116.0117533,1064
Western Australia,SWAN CHRISTIAN COLLEGE,Secondary,-31.85830659,116.0117533,1064
Western Australia,LUMEN CHRISTI COLLEGE,Secondary,-32.06737479,116.0120135,1013
Western Australia,ORANGE GROVE PRIMARY SCHOOL,Primary,-32.0357367,116.0120545,968
Western Australia,BYFORD PRIMARY SCHOOL,Primary,-32.21943768,116.0121953,973
Western Australia,ST BRIGID'S PRIMARY SCHOOL,Primary,-31.87563515,116.014347,1028
Western Australia,ARMADALE SENIOR HIGH SCHOOL,Secondary,-32.16152603,116.0143523,931
Western Australia,CENTRAL MIDLANDS SENIOR HIGH SCHOOL,Secondary,-30.64115241,116.0152142,956
Western Australia,KINGSLEY PRIMARY SCHOOL,Primary,-32.134611,116.015233,949
Western Australia,HILLSIDE CHRISTIAN COLLEGE,Primary,-31.97978892,116.0173602,1025
Western Australia,HILLSIDE CHRISTIAN COLLEGE,Secondary,-31.97978892,116.0173602,1025
Western Australia,MIDVALE PRIMARY SCHOOL,Primary,-31.887051,116.019478,881
Western Australia,HERITAGE COLLEGE PERTH,Primary,-31.98220269,116.0196448,1028
Western Australia,HERITAGE COLLEGE PERTH,Secondary,-31.98220269,116.0196448,1028
Western Australia,CLIFTON HILLS PRIMARY SCHOOL,Primary,-32.1094773,116.0207568,1020
Western Australia,KELMSCOTT PRIMARY SCHOOL,Primary,-32.11849593,116.0209958,979
Western Australia,MAIDA VALE PRIMARY SCHOOL,Primary,-31.94894601,116.0231303,1030
Western Australia,COOROW PRIMARY SCHOOL,Primary,-29.87940195,116.0234057,1026
Western Australia,HERNE HILL PRIMARY SCHOOL,Primary,-31.82980018,116.0237174,990
Western Australia,PIONEER VILLAGE SCHOOL,Primary,-32.15050254,116.0240299,1058
Western Australia,MOORDITJ NOONGAR COMMUNITY COLLEGE,Primary,-31.877453,116.025095,667
Western Australia,UPPER SWAN PRIMARY SCHOOL,Primary,-31.78681941,116.0251271,1025
Western Australia,GOOD SHEPHERD CATHOLIC PRIMARY SCHOOL,Primary,-32.12560377,116.0262673,1023
Western Australia,ARMADALE PRIMARY SCHOOL,Primary,-32.14823967,116.0264848,1038
Western Australia,BULLSBROOK COLLEGE,Secondary,-31.66171848,116.033179,979
Western Australia,ST JOSEPH'S SCHOOL,Primary,-34.44616935,116.0353768,1017
Western Australia,MIDDLE SWAN PRIMARY SCHOOL,Primary,-31.86781578,116.0366486,937
Western Australia,MAZENOD COLLEGE,Secondary,-32.006679,116.0388409,1067
Western Australia,CLAYTON VIEW PRIMARY SCHOOL,Primary,-31.90467468,116.0402451,860
Western Australia,ST ANTHONY'S SCHOOL,Primary,-31.89553184,116.0438926,1027
Western Australia,SWAN VIEW SENIOR HIGH SCHOOL,Secondary,-31.8874797,116.0443339,922
Western Australia,LESMURDIE PRIMARY SCHOOL,Primary,-32.00399197,116.0450004,1043
Western Australia,PEMBERTON DISTRICT HIGH SCHOOL,Secondary,-34.44748,116.04588,990
Western Australia,FALLS ROAD PRIMARY SCHOOL,Primary,-31.99216242,116.0470185,1074
Western Australia,GREENMOUNT PRIMARY SCHOOL,Primary,-31.89659298,116.0474336,996
Western Australia,SOUTHERN HILLS CHRISTIAN COLLEGE,Primary,-32.1816559,116.0483177,1038
Western Australia,SOUTHERN HILLS CHRISTIAN COLLEGE,Secondary,-32.1816559,116.0483177,1038
Western Australia,MARY'S MOUNT PRIMARY SCHOOL,Primary,-31.96134491,116.0484964,1086
Western Australia,HELENA VALLEY PRIMARY SCHOOL,Primary,-31.92484077,116.0486524,1017
Western Australia,SWAN VIEW PRIMARY SCHOOL,Primary,-31.88690093,116.0489988,894
Western Australia,KALAMUNDA PRIMARY SCHOOL,Primary,-31.97069617,116.0511421,1075
Western Australia,LESMURDIE SENIOR HIGH SCHOOL,Secondary,-32.01252075,116.0516431,1032
Western Australia,ST BRIGID'S COLLEGE,Primary,-31.99663035,116.0520664,1048
Western Australia,ST BRIGID'S COLLEGE,Secondary,-31.99663035,116.0520664,1048
Western Australia,GOOSEBERRY HILL PRIMARY SCHOOL,Primary,-31.95646856,116.05602,1071
Western Australia,KALAMUNDA SENIOR HIGH SCHOOL,Secondary,-31.97788079,116.0561861,1015
Western Australia,GREENBUSHES PRIMARY SCHOOL,Primary,-33.85097107,116.0594122,907
Western Australia,WATHEROO PRIMARY SCHOOL,Primary,-30.29858991,116.0606034,923
Western Australia,JARRAHDALE PRIMARY SCHOOL,Primary,-32.338619,116.062311,974
Western Australia,DWELLINGUP PRIMARY SCHOOL,Primary,-32.71529394,116.0641876,990
Western Australia,KALAMUNDA CHRISTIAN SCHOOL,Primary,-32.00465707,116.0691569,1089
Western Australia,WALLISTON PRIMARY SCHOOL,Primary,-31.99851134,116.06935,1032
Western Australia,TREETOPS MONTESSORI SCHOOL,Primary,-31.92002226,116.074229,1074
Western Australia,TREETOPS MONTESSORI SCHOOL,Secondary,-31.92002226,116.074229,1074
Western Australia,DARLINGTON PRIMARY SCHOOL,Primary,-31.92015078,116.07754,1106
Western Australia,IMMACULATE HEART COLLEGE,Primary,-31.56032856,116.0783495,995
Western Australia,IMMACULATE HEART COLLEGE,Secondary,-31.56032856,116.0783495,995
Western Australia,ROLEYSTONE COMMUNITY COLLEGE,Secondary,-32.10331975,116.0846169,1039
Western Australia,CARMEL ADVENTIST COLLEGE PRIMARY,Primary,-32.006706,116.091127,1079
Western Australia,HELENA COLLEGE,Primary,-31.90747,116.09144,1110
Western Australia,HELENA COLLEGE,Secondary,-31.90747,116.09144,1110
Western Australia,BINDOON PRIMARY SCHOOL,Primary,-31.38017209,116.0971002,963
Western Australia,ALLANSON PRIMARY SCHOOL,Primary,-33.33580893,116.099005,986
Western Australia,GLEN FORREST PRIMARY SCHOOL,Primary,-31.91537475,116.100319,1043
Western Australia,NORTHCLIFFE DISTRICT HIGH SCHOOL,Secondary,-34.63362225,116.1177689,977
Western Australia,PICKERING BROOK PRIMARY SCHOOL,Primary,-32.03466017,116.1307872,1046
Western Australia,PARKERVILLE PRIMARY SCHOOL,Primary,-31.88423347,116.1328154,1037
Western Australia,MANJIMUP SENIOR HIGH SCHOOL,Secondary,-34.233842,116.133228,977
Western Australia,MANJIMUP PRIMARY SCHOOL,Primary,-34.23292451,116.1339591,956
Western Australia,THE SILVER TREE STEINER SCHOOL,Primary,-31.86810533,116.1380466,1068
Western Australia,WILSON PARK PRIMARY SCHOOL,Primary,-33.36646617,116.1393685,803
Western Australia,ST BRIGID'S SCHOOL,Primary,-33.957669,116.140604,1019
Western Australia,BRIDGETOWN PRIMARY SCHOOL,Primary,-33.95485467,116.1407977,1006
Western Australia,KEARNAN COLLEGE,Primary,-34.24140477,116.1416408,1025
Western Australia,KEARNAN COLLEGE,Secondary,-34.24140477,116.1416408,1025
Western Australia,BRIDGETOWN HIGH SCHOOL,Secondary,-33.95993882,116.1420907,989
Western Australia,AMAROO PRIMARY SCHOOL,Primary,-33.35205078,116.149663,932
Western Australia,EAST MANJIMUP PRIMARY SCHOOL,Primary,-34.24502646,116.151728,963
Western Australia,COLLIE SENIOR HIGH SCHOOL,Secondary,-33.36307,116.156535,931
Western Australia,ST BRIGID'S SCHOOL,Primary,-33.3481206,116.1582939,1006
Western Australia,SACRED HEART SCHOOL,Primary,-31.90681782,116.1657238,1058
Western Australia,FAIRVIEW PRIMARY SCHOOL,Primary,-33.34837356,116.1685678,938
Western Australia,MUNDARING PRIMARY SCHOOL,Primary,-31.8949396,116.1729689,1030
Western Australia,MUNDARING CHRISTIAN COLLEGE,Primary,-31.89869433,116.1802693,1061
Western Australia,MUNDARING CHRISTIAN COLLEGE,Secondary,-31.89869433,116.1802693,1061
Western Australia,GIDGEGANNUP PRIMARY SCHOOL,Primary,-31.79416905,116.1954072,1028
Western Australia,SAWYERS VALLEY PRIMARY SCHOOL,Primary,-31.90182219,116.2033873,1025
Western Australia,MOUNT HELENA PRIMARY SCHOOL,Primary,-31.875319,116.218207,978
Western Australia,EASTERN HILLS SENIOR HIGH SCHOOL,Secondary,-31.87396818,116.2200892,1017
Western Australia,CHIDLOW PRIMARY SCHOOL,Primary,-31.85729037,116.2689559,1001
Western Australia,PERENJORI PRIMARY SCHOOL,Primary,-29.44325547,116.285171,1012
Western Australia,WOOROLOO PRIMARY SCHOOL,Primary,-31.80479148,116.3125818,999
Western Australia,PANNAWONICA PRIMARY SCHOOL,Primary,-21.637,116.323,982
Western Australia,MILING PRIMARY SCHOOL,Primary,-30.49314858,116.3622694,1047
Western Australia,WUNDOWIE PRIMARY SCHOOL,Primary,-31.76135676,116.3831274,910
Western Australia,ST MARY'S CATHOLIC SCHOOL,Primary,-33.83782677,116.3858836,990
Western Australia,BOYUP BROOK DISTRICT HIGH SCHOOL,Secondary,-33.83634699,116.3913376,1002
Western Australia,YERECOIN PRIMARY SCHOOL,Primary,-30.92633982,116.3931552,1053
Western Australia,CALINGIRI PRIMARY SCHOOL,Primary,-31.090094,116.449243,952
Western Australia,BAKERS HILL PRIMARY SCHOOL,Primary,-31.75120467,116.4615984,977
Western Australia,BODDINGTON DISTRICT HIGH SCHOOL,Secondary,-32.80157748,116.467088,966
Western Australia,TOODYAY DISTRICT HIGH SCHOOL,Secondary,-31.54802031,116.4726619,959
Western Australia,BOLGART PRIMARY SCHOOL,Primary,-31.27358225,116.5108606,1052
Western Australia,DALWALLINU DISTRICT HIGH SCHOOL,Secondary,-30.2704732,116.6610879,964
Western Australia,AVONVALE PRIMARY SCHOOL,Primary,-31.64551218,116.6613138,755
Western Australia,WEST NORTHAM PRIMARY SCHOOL,Primary,-31.66627195,116.6640164,810
Western Australia,NORTHAM SENIOR HIGH SCHOOL,Secondary,-31.64725593,116.6676491,924
Western Australia,WANDERING PRIMARY SCHOOL,Primary,-32.67789673,116.6727061,953
Western Australia,NORTHAM PRIMARY SCHOOL,Primary,-31.65156081,116.6757754,969
Western Australia,ST JOSEPH'S SCHOOL,Primary,-31.65767596,116.6782822,1032
Western Australia,ST JOSEPH'S SCHOOL,Secondary,-31.65767596,116.6782822,1032
Western Australia,DAMPIER PRIMARY SCHOOL,Primary,-20.6644723,116.705717,1016
Western Australia,WONGAN HILLS DISTRICT HIGH SCHOOL,Secondary,-30.8905344,116.7213344,959
Western Australia,WALPOLE PRIMARY SCHOOL,Primary,-34.97861268,116.7282223,1039
Western Australia,DARKAN PRIMARY SCHOOL,Primary,-33.33586626,116.7346573,958
Western Australia,YORK DISTRICT HIGH SCHOOL,Secondary,-31.89178422,116.7589984,918
Western Australia,BAYNTON WEST PRIMARY SCHOOL,Primary,-20.75252283,116.79939,995
Western Australia,TAMBREY PRIMARY SCHOOL,Primary,-20.742486,116.80111,966
Western Australia,ST LUKE'S COLLEGE,Secondary,-20.75172597,116.8174458,1034
Western Australia,MILLARS WELL PRIMARY SCHOOL,Primary,-20.74221594,116.8176143,965
Western Australia,KARRATHA SENIOR HIGH SCHOOL,Secondary,-20.74695822,116.8241249,944
Western Australia,SACRED HEART CATHOLIC SCHOOL,Primary,-31.30080813,116.8276298,974
Western Australia,GOOMALLING PRIMARY SCHOOL,Primary,-31.30541151,116.8289089,921
Western Australia,PEGS CREEK PRIMARY SCHOOL,Primary,-20.73768669,116.831754,922
Western Australia,ST PAUL'S PRIMARY SCHOOL,Primary,-20.73371058,116.8496741,1047
Western Australia,KARRATHA PRIMARY SCHOOL,Primary,-20.72938851,116.8590823,934
Western Australia,WILLIAMS PRIMARY SCHOOL,Primary,-33.02268273,116.8825334,1019
Western Australia,BEVERLEY DISTRICT HIGH SCHOOL,Secondary,-32.10031422,116.9276944,966
Western Australia,BURRINGURRAH REMOTE COMMUNITY SCHOOL,Primary,-24.651178,116.932686,731
Western Australia,BROOKTON DISTRICT HIGH SCHOOL,Secondary,-32.37207392,117.0086817,899
Western Australia,MECKERING PRIMARY SCHOOL,Primary,-31.62835599,117.0104919,1013
Western Australia,DOWERIN DISTRICT HIGH SCHOOL,Secondary,-31.19174,117.037882,961
Western Australia,FRANKLAND RIVER PRIMARY SCHOOL,Primary,-34.36312,117.078601,1051
Western Australia,PINGELLY PRIMARY SCHOOL,Primary,-32.53343022,117.0792151,889
Western Australia,KALANNIE PRIMARY SCHOOL,Primary,-30.36200225,117.1139186,1009
Western Australia,CADOUX PRIMARY SCHOOL,Primary,-30.77070399,117.1366031,1022
Western Australia,ROEBOURNE DISTRICT HIGH SCHOOL,Secondary,-20.76855012,117.14215,597
Western Australia,WICKHAM PRIMARY SCHOOL,Primary,-20.68092304,117.1440973,942
Western Australia,KOJONUP DISTRICT HIGH SCHOOL,Secondary,-33.84013104,117.1565215,968
Western Australia,ST BERNARD'S SCHOOL,Primary,-33.82759512,117.1619039,1018
Western Australia,NARROGIN PRIMARY SCHOOL,Primary,-32.93401014,117.1729339,944
Western Australia,ST MATTHEW'S SCHOOL,Primary,-32.93530913,117.1744858,1026
Western Australia,EAST NARROGIN PRIMARY SCHOOL,Primary,-32.93547426,117.1883722,897
Western Australia,NARROGIN SENIOR HIGH SCHOOL,Secondary,-32.93810289,117.1914239,968
Western Australia,CUNDERDIN DISTRICT HIGH SCHOOL,Secondary,-31.65627,117.243877,952
Western Australia,WAGIN DISTRICT HIGH SCHOOL,Secondary,-33.31189146,117.3404578,962
Western Australia,DENMARK PRIMARY SCHOOL,Primary,-34.96364766,117.3534296,1020
Western Australia,GOLDEN HILL STEINER SCHOOL,Primary,-34.94203668,117.3591392,1059
Western Australia,DENMARK SENIOR HIGH SCHOOL,Secondary,-34.95741408,117.3645842,1038
Western Australia,SPIRIT OF PLAY COMMUNITY SCHOOL,Primary,-34.97137317,117.3650044,1078
Western Australia,WYALKATCHEM DISTRICT HIGH SCHOOL,Secondary,-31.1738,117.385581,902
Western Australia,QUAIRADING DISTRICT HIGH SCHOOL,Secondary,-32.0076234,117.3985906,881
Western Australia,KOORDA PRIMARY SCHOOL,Primary,-30.826,117.483,995
Western Australia,TAMMIN PRIMARY SCHOOL,Primary,-31.63991544,117.4857268,921
Western Australia,WICKEPIN PRIMARY SCHOOL,Primary,-32.78598599,117.4961991,988
Western Australia,ST PATRICK'S SCHOOL,Primary,-33.689092,117.540217,1019
Western Australia,CRANBROOK PRIMARY SCHOOL,Primary,-34.29276525,117.5508016,970
Western Australia,KATANNING PRIMARY SCHOOL,Primary,-33.69203343,117.559204,860
Western Australia,BRAESIDE PRIMARY SCHOOL,Primary,-33.679,117.56,891
Western Australia,KATANNING SENIOR HIGH SCHOOL,Secondary,-33.68321703,117.5692745,899
Western Australia,KENDENUP PRIMARY SCHOOL,Primary,-34.482,117.618,941
Western Australia,YEALERING PRIMARY SCHOOL,Primary,-32.59302111,117.6211768,1022
Western Australia,WOODBURY BOSTON PRIMARY SCHOOL,Primary,-35.069076,117.6256163,1039
Western Australia,BROOMEHILL PRIMARY SCHOOL,Primary,-33.84507375,117.6342811,1036
Western Australia,TAMBELLUP PRIMARY SCHOOL,Primary,-34.03968903,117.6428315,848
Western Australia,MOUNT BARKER COMMUNITY COLLEGE,Secondary,-34.612767,117.665171,942
Western Australia,PARABURDOO PRIMARY SCHOOL,Primary,-23.19658911,117.6723112,959
Western Australia,KELLERBERRIN DISTRICT HIGH SCHOOL,Secondary,-31.63149171,117.7186275,894
Western Australia,DUMBLEYUNG PRIMARY SCHOOL,Primary,-33.31275734,117.7386752,978
Western Australia,NORTH TOM PRICE PRIMARY SCHOOL,Primary,-22.6814049,117.781115,954
Western Australia,TRAYNING PRIMARY SCHOOL,Primary,-31.11523623,117.7897864,897
Western Australia,TOM PRICE PRIMARY SCHOOL,Primary,-22.6945611,117.7933414,953
Western Australia,TOM PRICE SENIOR HIGH SCHOOL,Secondary,-22.68733347,117.7946827,928
Western Australia,MOUNT LOCKYER PRIMARY SCHOOL,Primary,-35.00279631,117.856093,939
Western Australia,BENCUBBIN PRIMARY SCHOOL,Primary,-30.8076984,117.8572615,971
Western Australia,PARKLANDS SCHOOL,Primary,-35.00484165,117.8614062,1077
Western Australia,NORTH ALBANY SENIOR HIGH SCHOOL,Secondary,-34.99074882,117.8668674,970
Western Australia,LITTLE GROVE PRIMARY SCHOOL,Primary,-35.06595201,117.867226,1022
Western Australia,BEACON PRIMARY SCHOOL,Primary,-30.45065535,117.8688978,1032
Western Australia,JOHN CALVIN SCHOOL,Primary,-35.003739,117.871159,1024
Western Australia,JOHN CALVIN SCHOOL,Secondary,-35.003739,117.871159,1024
Western Australia,YAKAMIA PRIMARY SCHOOL,Primary,-35.00213634,117.8737834,975
Western Australia,CORRIGIN DISTRICT HIGH SCHOOL,Secondary,-32.32675596,117.8771847,975
Western Australia,BETHEL CHRISTIAN SCHOOL,Primary,-35.00481744,117.881185,1016
Western Australia,BETHEL CHRISTIAN SCHOOL,Secondary,-35.00481744,117.881185,1016
Western Australia,ALBANY PRIMARY SCHOOL,Primary,-35.01821151,117.8916106,1038
Western Australia,ALBANY SENIOR HIGH SCHOOL,Secondary,-35.02044765,117.8917733,1010
Western Australia,SPENCER PARK PRIMARY SCHOOL,Primary,-35.00554418,117.9018779,922
Western Australia,ST JOSEPH'S COLLEGE,Primary,-34.997944,117.902192,1033
Western Australia,ST JOSEPH'S COLLEGE,Secondary,-34.997944,117.902192,1033
Western Australia,AUSTRALIAN CHRISTIAN COLLEGE - SOUTHLANDS,Primary,-34.99550802,117.9227056,1034
Western Australia,AUSTRALIAN CHRISTIAN COLLEGE - SOUTHLANDS,Secondary,-34.99550802,117.9227056,1034
Western Australia,FLINDERS PARK PRIMARY SCHOOL,Primary,-34.97824017,117.9300686,979
Western Australia,GREAT SOUTHERN GRAMMAR,Primary,-34.94755539,117.9707332,1075
Western Australia,GREAT SOUTHERN GRAMMAR,Secondary,-34.94755539,117.9707332,1075
Western Australia,GNOWANGERUP DISTRICT HIGH SCHOOL,Secondary,-33.938232,118.00801,917
Western Australia,BABAKIN PRIMARY SCHOOL,Primary,-32.12359155,118.0209226,969
Western Australia,KUKERIN PRIMARY SCHOOL,Primary,-33.18512011,118.0859386,1061
Western Australia,NUNGARIN PRIMARY SCHOOL,Primary,-31.1872158,118.1002162,942
Western Australia,BRUCE ROCK DISTRICT HIGH SCHOOL,Secondary,-31.87363474,118.1476627,952
Western Australia,NYABING PRIMARY SCHOOL,Primary,-33.54423624,118.1526008,1006
Western Australia,KULIN DISTRICT HIGH SCHOOL,Secondary,-32.67021123,118.1526847,1033
Western Australia,MOUNT MANYPEAKS PRIMARY SCHOOL,Primary,-34.83958648,118.1720656,991
Western Australia,MUKINBUDIN DISTRICT HIGH SCHOOL,Secondary,-30.916192,118.208956,964
Western Australia,SOUTH STIRLING PRIMARY SCHOOL,Primary,-34.57914966,118.210334,1024
Western Australia,BORDEN PRIMARY SCHOOL,Primary,-34.07290497,118.2630312,1058
Western Australia,KONDININ PRIMARY SCHOOL,Primary,-32.49408236,118.2637107,899
Western Australia,ST MARY'S SCHOOL,Primary,-31.48713246,118.2746675,1035
Western Australia,MERREDIN COLLEGE,Secondary,-31.48808967,118.2849815,954
Western Australia,NAREMBEEN DISTRICT HIGH SCHOOL,Secondary,-32.06303073,118.3912322,1006
Western Australia,YANDEYARRA REMOTE COMMUNITY SCHOOL,Primary,-21.285188,118.403148,669
Western Australia,LAKE GRACE DISTRICT HIGH SCHOOL,Secondary,-33.103443,118.459432,990
Western Australia,ONGERUP PRIMARY SCHOOL,Primary,-33.963151,118.482748,1014
Western Australia,MEEKATHARRA DISTRICT HIGH SCHOOL,Secondary,-26.59116051,118.4913155,702
Western Australia,YULGA JINNA REMOTE COMMUNITY SCHOOL,Primary,-25.617306,118.557728,597
Western Australia,HEDLAND SENIOR HIGH SCHOOL,Secondary,-20.39878872,118.598616,908
Western Australia,SOUTH HEDLAND PRIMARY SCHOOL,Primary,-20.40164145,118.6018711,762
Western Australia,ST CECILIA'S CATHOLIC PRIMARY SCHOOL,Primary,-20.30972649,118.6021896,1003
Western Australia,WELLSTEAD PRIMARY SCHOOL,Primary,-34.49592129,118.6041803,1017
Western Australia,CASSIA PRIMARY SCHOOL,Primary,-20.40888577,118.6079095,895
Western Australia,BALER PRIMARY SCHOOL,Primary,-20.40461541,118.6124558,927
Western Australia,PORT HEDLAND SCHOOL OF THE AIR,Primary,-20.376876,118.630593,981
Western Australia,PORT HEDLAND PRIMARY SCHOOL,Primary,-20.30393313,118.6336307,993
Western Australia,HYDEN PRIMARY SCHOOL,Primary,-32.44862907,118.861951,1005
Western Australia,JERRAMUNGUP DISTRICT HIGH SCHOOL,Secondary,-33.94498437,118.9175865,992
Western Australia,GAIRDNER PRIMARY SCHOOL,Primary,-34.2108414,118.9385849,1032
Western Australia,STRELLEY COMMUNITY SCHOOL,Primary,-20.43710217,118.988487,754
Western Australia,STRELLEY COMMUNITY SCHOOL,Secondary,-20.43710217,118.988487,754
Western Australia,NEWDEGATE PRIMARY SCHOOL,Primary,-33.09321456,119.0211444,1014
Western Australia,MOORINE ROCK PRIMARY SCHOOL,Primary,-31.31490654,119.1254458,998
Western Australia,ST JOSEPH'S SCHOOL,Primary,-31.22952336,119.3250078,992
Western Australia,SOUTHERN CROSS DISTRICT HIGH SCHOOL,Secondary,-31.23119646,119.3268575,930
Western Australia,BREMER BAY PRIMARY SCHOOL,Primary,-34.393283,119.37476,1014
Western Australia,LAKE KING PRIMARY SCHOOL,Primary,-33.09143031,119.6734691,1102
Western Australia,NEWMAN PRIMARY SCHOOL,Primary,-23.35448061,119.7322686,955
Western Australia,SOUTH NEWMAN PRIMARY SCHOOL,Primary,-23.363209,119.73407,942
Western Australia,NEWMAN SENIOR HIGH SCHOOL,Secondary,-23.36220252,119.7341359,926
Western Australia,MARBLE BAR PRIMARY SCHOOL,Primary,-21.1694751,119.7478156,693
Western Australia,RAVENSTHORPE DISTRICT HIGH SCHOOL,Secondary,-33.58198044,120.0519004,970
Western Australia,NULLAGINE PRIMARY SCHOOL,Primary,-21.88772586,120.104262,555
Western Australia,HOPETOUN PRIMARY SCHOOL,Primary,-33.94505538,120.1288975,960
Western Australia,JERDACUTTUP PRIMARY SCHOOL,Primary,-33.70715991,120.4731266,985
Western Australia,LEINSTER COMMUNITY SCHOOL,Primary,-27.91539981,120.6955058,989
Western Australia,MUNGLINUP PRIMARY SCHOOL,Primary,-33.70388481,120.8566109,1002
Western Australia,MENZIES COMMUNITY SCHOOL,Primary,-29.697207,120.898333,764
Western Australia,CASCADE PRIMARY SCHOOL,Primary,-33.46836264,121.0723384,1041
Western Australia,CHRISTIAN ABORIGINAL PARENT-DIRECTED SCHOOL,Primary,-30.95228,121.16131,723
Western Australia,CHRISTIAN ABORIGINAL PARENT-DIRECTED SCHOOL,Secondary,-30.95228,121.16131,723
Western Australia,COOLGARDIE PRIMARY SCHOOL,Primary,-30.95018807,121.1671483,804
Western Australia,CHRISTIAN ABORIGINAL PARENT-DIRECTED SCHOOL - KURRAWANG,Primary,-30.83002,121.3301,723
Western Australia,LEONORA DISTRICT HIGH SCHOOL,Secondary,-28.88414676,121.3329384,716
Western Australia,HANNANS PRIMARY SCHOOL,Primary,-30.72499605,121.4518583,984
Western Australia,NORTH KALGOORLIE PRIMARY SCHOOL,Primary,-30.73865013,121.459702,984
Western Australia,GOLDFIELDS BAPTIST COLLEGE,Primary,-30.77620533,121.4630845,993
Western Australia,GOLDFIELDS BAPTIST COLLEGE,Secondary,-30.77620533,121.4630845,993
Western Australia,O'CONNOR PRIMARY SCHOOL,Primary,-30.77657514,121.4658619,931
Western Australia,KALGOORLIE PRIMARY SCHOOL,Primary,-30.74472512,121.4701713,977
Western Australia,ST MARY'S PRIMARY SCHOOL,Primary,-30.74327964,121.4718278,1037
Western Australia,ST JOSEPH'S SCHOOL,Primary,-30.782918,121.47335,978
Western Australia,EASTERN GOLDFIELDS COLLEGE,Secondary,-30.75101639,121.4753746,990
Western Australia,SOUTH KALGOORLIE PRIMARY SCHOOL,Primary,-30.76244847,121.476861,910
Western Australia,JOHN PAUL COLLEGE,Secondary,-30.76410096,121.4787154,1018
Western Australia,KALGOORLIE-BOULDER COMMUNITY HIGH SCHOOL,Secondary,-30.76705062,121.4788763,905
Western Australia,EAST KALGOORLIE PRIMARY SCHOOL,Primary,-30.74742189,121.4854297,640
Western Australia,KALGOORLIE SCHOOL OF THE AIR,Primary,-30.78223722,121.4860622,1020
Western Australia,BOULDER PRIMARY SCHOOL,Primary,-30.78003681,121.4875325,848
Western Australia,KAMBALDA WEST DISTRICT HIGH SCHOOL,Secondary,-31.20551775,121.6204895,888
Western Australia,SALMON GUMS PRIMARY SCHOOL,Primary,-32.984142,121.643353,1060
Western Australia,KAMBALDA PRIMARY SCHOOL,Primary,-31.2044049,121.6652357,920
Western Australia,SCADDAN PRIMARY SCHOOL,Primary,-33.44992407,121.7332472,1040
Western Australia,NORSEMAN DISTRICT HIGH SCHOOL,Secondary,-32.19186573,121.773247,826
Western Australia,LA GRANGE REMOTE COMMUNITY SCHOOL,Primary,-18.685254,121.782644,701
Western Australia,ESPERANCE SENIOR HIGH SCHOOL,Secondary,-33.86017872,121.868258,972
Western Australia,NULSEN PRIMARY SCHOOL,Primary,-33.85822068,121.8728056,854
Western Australia,ESPERANCE CHRISTIAN PRIMARY SCHOOL,Primary,-33.86426103,121.8773873,1003
Western Australia,ESPERANCE ANGLICAN COMMUNITY SCHOOL,Secondary,-33.87140172,121.8844588,1029
Western Australia,OUR LADY STAR OF THE SEA CATHOLIC PRIMARY SCHOOL,Primary,-33.87466746,121.887832,1020
Western Australia,ESPERANCE PRIMARY SCHOOL,Primary,-33.85981206,121.890272,1023
Western Australia,CASTLETOWN PRIMARY SCHOOL,Primary,-33.83182737,121.9084582,977
Western Australia,CABLE BEACH PRIMARY SCHOOL,Primary,-17.95879062,122.2164767,838
Western Australia,ST MARY'S COLLEGE,Primary,-17.96107323,122.222487,889
Western Australia,ST MARY'S COLLEGE,Secondary,-17.96107323,122.222487,889
Western Australia,BROOME NORTH PRIMARY SCHOOL,Primary,-17.9266374,122.2301416,987
Western Australia,BROOME SENIOR HIGH SCHOOL,Secondary,-17.95614273,122.2323264,932
Western Australia,ROEBUCK PRIMARY SCHOOL,Primary,-17.9403723,122.2323764,1022
Western Australia,BROOME PRIMARY SCHOOL,Primary,-17.96120109,122.2379626,889
Western Australia,CONDINGUP PRIMARY SCHOOL,Primary,-33.75467811,122.5268561,999
Western Australia,SACRED HEART SCHOOL,Primary,-16.9746,122.66171,663
Western Australia,ONE ARM POINT REMOTE COMMUNITY SCHOOL,Primary,-16.44574,123.060811,744
Western Australia,DERBY DISTRICT HIGH SCHOOL,Secondary,-17.30943881,123.633739,758
Western Australia,HOLY ROSARY SCHOOL,Primary,-17.3050183,123.6337752,918
Western Australia,KIMBERLEY SCHOOL OF THE AIR,Primary,-17.309389,123.633779,975
Western Australia,LOOMA REMOTE COMMUNITY SCHOOL,Primary,-18.039234,124.149541,683
Western Australia,NGALAPITA REMOTE COMMUNITY SCHOOL,Primary,-18.584253,124.754181,606
Western Australia,KULKARRIYA COMMUNITY SCHOOL,Primary,-18.503222,124.831111,645
Western Australia,KULKARRIYA COMMUNITY SCHOOL,Secondary,-18.503222,124.831111,645
Western Australia,DJUGERARI REMOTE COMMUNITY SCHOOL,Primary,-18.988706,125.510396,605
Western Australia,FITZROY VALLEY DISTRICT HIGH SCHOOL,Secondary,-18.196468,125.566842,705
Western Australia,BAYULU REMOTE COMMUNITY SCHOOL,Primary,-18.28637,125.58345,690
Western Australia,MULUDJA REMOTE COMMUNITY SCHOOL,Primary,-18.159712,125.761637,658
Western Australia,WANGKATJUNGKA REMOTE COMMUNITY SCHOOL,Primary,-18.885222,125.926869,708
Western Australia,WANANAMI REMOTE COMMUNITY SCHOOL,Primary,-16.719944,125.930247,772
Western Australia,WARLAWURRU CATHOLIC SCHOOL,Primary,-18.224165,127.668324,651
Western Australia,LUURNPA CATHOLIC SCHOOL,Primary,-20.142514,127.983031,585
Western Australia,LUURNPA CATHOLIC SCHOOL,Secondary,-20.142514,127.983031,585
Western Australia,WYNDHAM DISTRICT HIGH SCHOOL,Secondary,-15.48878706,128.1212215,700
Western Australia,ST JOSEPH'S SCHOOL,Primary,-15.48554463,128.1247657,746
Western Australia,NGALANGANGPUM SCHOOL,Primary,-17.029901,128.212134,664
Western Australia,NGALANGANGPUM SCHOOL,Secondary,-17.029901,128.212134,664
Western Australia,DAWUL REMOTE COMMUNITY SCHOOL,Primary,-16.306425,128.2465,835
Western Australia,BIRLIRR NGAWIYIWU CATHOLIC SCHOOL,Primary,-18.794047,128.615847,511
Western Australia,ST JOSEPH'S SCHOOL,Primary,-15.76988667,128.7328237,820
New South Wales,Railway Town Public School,Primary,-31.9706,141.44,880
New South Wales,Burke Ward Public School,Primary,-31.9604,141.441,906
New South Wales,Broken Hill Public School,Primary,-31.9565,141.457,906
New South Wales,Broken Hill High School,Secondary,-31.9601,141.457,919
New South Wales,Sacred Heart Parish School,Primary,-31.9527,141.46,1018
New South Wales,Morgan Street Public School,Primary,-31.9415,141.461,966
New South Wales,Alma Public School,Primary,-31.9822,141.462,863
New South Wales,Broken Hill North Public School,Primary,-31.9439,141.472,856
New South Wales,School of the Air,Primary,-31.9457,141.472,1001
New South Wales,Willyama High School,Secondary,-31.9366,141.473,912
New South Wales,Pomona Public School,Primary,-34.0257,141.895,909
New South Wales,Wentworth Public School,Primary,-34.1032,141.919,841
New South Wales,Tibooburra Outback Public School,Primary,-29.4321,142.01,949
New South Wales,Palinyewah Public School,Primary,-33.845,142.013,1000
New South Wales,Dareton Public School,Primary,-34.0911,142.04,620
New South Wales,Coomealla High School,Secondary,-34.096,142.06,861
New South Wales,Buronga Public School,Primary,-34.1695,142.181,840
New South Wales,Gol Gol Public School,Primary,-34.1796,142.223,1015
New South Wales,Menindee Central School,Primary,-32.3934,142.413,761
New South Wales,Menindee Central School,Secondary,-32.3934,142.413,761
New South Wales,Pooncarie Public School,Primary,-33.3814,142.569,967
New South Wales,Euston Public School,Primary,-34.5756,142.744,952
New South Wales,White Cliffs Public School,Primary,-30.8509,143.09,1051
New South Wales,Tooleybuc Central School,Primary,-35.0266,143.338,945
New South Wales,Tooleybuc Central School,Secondary,-35.0266,143.338,945
New South Wales,Wilcannia Central School,Primary,-31.5585,143.376,647
New South Wales,Wilcannia Central School,Secondary,-31.5585,143.376,647
New South Wales,St Therese's Community Parish School,Primary,-31.5591,143.379,804
New South Wales,St Joseph's Parish School,Primary,-34.6378,143.563,947
New South Wales,Balranald Central School,Primary,-34.6363,143.564,889
New South Wales,Balranald Central School,Secondary,-34.6363,143.564,889
New South Wales,Moulamein Public School,Primary,-35.0893,144.033,960
New South Wales,Barham Public School,Primary,-35.6269,144.128,984
New South Wales,Barham High School,Secondary,-35.623,144.132,964
New South Wales,Wanaaring Public School,Primary,-29.7056,144.145,771
New South Wales,Ivanhoe Central School,Primary,-32.8985,144.301,775
New South Wales,Ivanhoe Central School,Secondary,-32.8985,144.301,775
New South Wales,Wakool Burraboi Public School,Primary,-35.4663,144.393,871
New South Wales,Bunnaloo Public School,Primary,-35.7864,144.598,1039
New South Wales,Moama Anglican Grammar School,Primary,-36.1012,144.749,1066
New South Wales,Moama Anglican Grammar School,Secondary,-36.1012,144.749,1066
New South Wales,Moama Public School,Primary,-36.1153,144.763,925
New South Wales,St Mary's Parish School,Primary,-34.5089,144.84,1042
New South Wales,Hay War Memorial High School,Secondary,-34.5052,144.841,920
New South Wales,Hay Public School,Primary,-34.5061,144.844,931
New South Wales,Booligal Public School,Primary,-33.867,144.886,1024
New South Wales,Mathoura Public School,Primary,-35.8161,144.902,934
New South Wales,Deniliquin Christian School,Primary,-35.5199,144.945,962
New South Wales,Deniliquin Christian School,Secondary,-35.5199,144.945,962
New South Wales,Edward Public School,Primary,-35.5244,144.951,866
New South Wales,Deniliquin High School,Secondary,-35.5281,144.955,947
New South Wales,Deniliquin South Public School,Primary,-35.5377,144.956,969
New South Wales,St Michael's Parish School,Primary,-35.5309,144.962,1034
New South Wales,Deniliquin North Public School,Primary,-35.5252,144.982,977
New South Wales,Conargo Public School,Primary,-35.3053,145.179,913
New South Wales,Mayrung Public School,Primary,-35.4643,145.309,915
New South Wales,Blighty Public School,Primary,-35.5801,145.349,996
New South Wales,Carrathool Public School,Primary,-34.4084,145.431,949
New South Wales,St Joseph's Parish School,Primary,-33.4843,145.528,1015
New South Wales,Hillston Central School,Primary,-33.4799,145.54,916
New South Wales,Hillston Central School,Secondary,-33.4799,145.54,916
New South Wales,Tocumwal Public School,Primary,-35.8139,145.569,1001
New South Wales,Finley High School,Secondary,-35.6404,145.573,957
New South Wales,Finley Public School,Primary,-35.6394,145.575,955
New South Wales,Sacred Heart Primary School,Primary,-35.8148,145.576,1024
New South Wales,St Joseph's Primary School,Primary,-35.6376,145.577,1009
New South Wales,Barooga Public School,Primary,-35.913,145.696,980
New South Wales,Goolgowi Public School,Primary,-33.9757,145.709,969
New South Wales,Jerilderie Public School,Primary,-35.3546,145.729,957
New South Wales,St Joseph's Primary School,Primary,-35.361,145.736,991
New South Wales,St Joseph's Primary School,Primary,-35.361,145.736,991
New South Wales,St Columba's Primary School,Primary,-35.6558,145.809,965
New South Wales,Berrigan Public School,Primary,-35.6597,145.816,959
New South Wales,Cobar High School,Secondary,-31.5016,145.828,913
New South Wales,St John's Parish School,Primary,-31.4985,145.834,970
New South Wales,Cobar Public School,Primary,-31.5022,145.837,888
New South Wales,Enngonia Public School,Primary,-29.3189,145.844,766
New South Wales,St Peter's Primary School,Primary,-34.8051,145.879,1028
New South Wales,Coleambally Central School,Primary,-34.8042,145.884,917
New South Wales,Coleambally Central School,Secondary,-34.8042,145.884,917
New South Wales,St Ignatius' Parish School,Primary,-30.0882,145.932,903
New South Wales,Bourke High School,Secondary,-30.0915,145.949,741
New South Wales,Bourke-Walgett School of Distance Education,Primary,-30.0936,145.949,1047
New South Wales,Bourke Public School,Primary,-30.0935,145.95,745
New South Wales,Tharbogang Public School,Primary,-34.2616,145.985,974
New South Wales,Darlington Point Public School,Primary,-34.5728,145.994,814
New South Wales,Koinonia Christian Academy,Primary,-29.9701,145.995,813
New South Wales,Koinonia Christian Academy,Secondary,-29.9701,145.995,813
New South Wales,Mulwala Public School,Primary,-35.9871,146.007,970
New South Wales,Verity Christian College,Primary,-34.30041,146.03338,1023
New South Wales,Lake Wyangan Public School,Primary,-34.2482,146.034,963
New South Wales,Griffith Public School,Primary,-34.2914,146.036,846
New South Wales,Hanwood Public School,Primary,-34.3299,146.042,981
New South Wales,St Patrick's Primary School,Primary,-34.2816,146.046,1025
New South Wales,Savernake Public School,Primary,-35.7322,146.048,905
New South Wales,Griffith North Public School,Primary,-34.2799,146.048,970
New South Wales,Marian Catholic College,Secondary,-34.2868,146.058,1004
New South Wales,Griffith East Public School,Primary,-34.2861,146.062,973
New South Wales,Murrumbidgee Regional High School,Secondary,-34.2821,146.071,939
New South Wales,St Mary's Primary School,Primary,-34.3006,146.083,1031
New South Wales,Yoogali Public School,Primary,-34.2997,146.086,882
New South Wales,Beelbangera Public School,Primary,-34.2528,146.101,992
New South Wales,Oaklands Central School,Primary,-35.5527,146.172,961
New South Wales,Oaklands Central School,Secondary,-35.5527,146.172,961
New South Wales,Whitton-Murrami Public School,Primary,-34.5189,146.181,898
New South Wales,Yenda Public School,Primary,-34.2524,146.198,981
New South Wales,Rankins Springs Public School,Primary,-33.84,146.258,928
New South Wales,St Francis Xavier Primary School,Primary,-35.3347,146.264,1017
New South Wales,Urana Public School,Primary,-35.3275,146.267,884
New South Wales,Naradhan Public School,Primary,-33.6156,146.327,900
New South Wales,Wamoon Public School,Primary,-34.5253,146.331,797
New South Wales,Binya Public School,Primary,-34.2287,146.353,1042
New South Wales,St Francis Xavier's Primary School,Primary,-33.2965,146.369,902
New South Wales,Lowesdale Public School,Primary,-35.8562,146.369,1027
New South Wales,Lake Cargelligo Central School,Primary,-33.2948,146.374,846
New South Wales,Lake Cargelligo Central School,Secondary,-33.2948,146.374,846
New South Wales,Corowa South Public School,Primary,-36.021,146.376,955
New South Wales,Corowa High School,Secondary,-35.9937,146.381,970
New South Wales,Yanco Agricultural High School,Secondary,-34.6322,146.384,1001
New South Wales,St Mary's Primary School,Primary,-35.9965,146.388,1032
New South Wales,Corowa Public School,Primary,-35.9925,146.395,947
New South Wales,Parkview Public School,Primary,-34.5618,146.396,891
New South Wales,Euabalong West Public School,Primary,-33.05583,146.397,821
New South Wales,St Joseph's Primary School,Primary,-34.5549,146.404,1010
New South Wales,St Joseph's Primary School,Primary,-34.5549,146.404,1010
New South Wales,Leeton High School,Secondary,-34.5468,146.406,927
New South Wales,Leeton Public School,Primary,-34.5461,146.407,987
New South Wales,Yanco Public School,Primary,-34.5979,146.411,898
New South Wales,St Francis De Sales Regional College,Secondary,-34.5679,146.411,1013
New South Wales,Narrandera Public School,Primary,-34.7445,146.548,839
New South Wales,St Joseph's Primary School,Primary,-34.7492,146.555,979
New South Wales,Narrandera East Infants School,Primary,-34.7502,146.565,939
New South Wales,Narrandera High School,Secondary,-34.7442,146.567,911
New South Wales,Barellan Central School,Primary,-34.2878,146.572,936
New South Wales,Barellan Central School,Secondary,-34.2878,146.572,936
New South Wales,Rand Public School,Primary,-35.5961,146.58,989
New South Wales,Boree Creek Public School,Primary,-35.1059,146.606,920
New South Wales,Weethalle Public School,Primary,-33.88,146.619,933
New South Wales,Howlong Public School,Primary,-35.9799,146.637,1005
New South Wales,Brocklesby Public School,Primary,-35.8239,146.678,976
New South Wales,Lockhart Central School,Primary,-35.2228,146.715,849
New South Wales,Lockhart Central School,Secondary,-35.2228,146.715,849
New South Wales,St Joseph's Primary School,Primary,-35.2202,146.721,1044
New South Wales,Hermidale Public School,Primary,-31.5512,146.723,859
New South Wales,Tullibigeal Central School,Primary,-33.4229,146.723,962
New South Wales,Tullibigeal Central School,Secondary,-33.4229,146.723,962
New South Wales,Walbundrie Public School,Primary,-35.6874,146.726,1026
New South Wales,Pleasant Hills Public School,Primary,-35.4669,146.799,981
New South Wales,Burrumbuttock Public School,Primary,-35.8375,146.8,954
New South Wales,Saint Mary MacKillop College Albury,Primary,-35.9029,146.827,1077
New South Wales,Saint Mary MacKillop College Albury,Secondary,-35.9029,146.827,1077
New South Wales,Brewarrina Central School,Primary,-29.9637,146.859,688
New South Wales,Brewarrina Central School,Secondary,-29.9637,146.859,688
New South Wales,St Patrick's Parish School,Primary,-29.9611,146.859,758
New South Wales,Tallimba Public School,Primary,-33.9936,146.878,933
New South Wales,St John's Lutheran Primary School,Primary,-35.9571,146.882,1063
New South Wales,Jindera Public School,Primary,-35.959,146.887,984
New South Wales,Albury West Public School,Primary,-36.0778,146.896,867
New South Wales,Ardlethan Central School,Primary,-34.3541,146.901,939
New South Wales,Ardlethan Central School,Secondary,-34.3541,146.901,939
New South Wales,Walla Walla Public School,Primary,-35.758,146.901,981
New South Wales,St Paul's College,Secondary,-35.7554,146.908,1026
New South Wales,Girilambone Public School,Primary,-31.2497,146.909,971
New South Wales,Albury High School,Secondary,-36.0728,146.915,1010
New South Wales,St Patrick's Parish School,Primary,-36.0841,146.916,1061
New South Wales,Glenroy Public School,Primary,-36.0546,146.917,878
New South Wales,Weilmoringle Public School,Primary,-29.2388,146.918,644
New South Wales,Albury Public School,Primary,-36.0825,146.919,1049
New South Wales,Matong Public School,Primary,-34.7701,146.927,963
New South Wales,The Scots School Albury,Primary,-36.0729,146.927,1135
New South Wales,The Scots School Albury,Secondary,-36.0729,146.927,1135
New South Wales,Lavington Public School,Primary,-36.0374,146.928,941
New South Wales,James Fallon High School,Secondary,-36.0602,146.929,903
New South Wales,Albury North Public School,Primary,-36.0642,146.932,878
New South Wales,Xavier High School,Secondary,-36.0627,146.935,1038
New South Wales,St Anne's Primary School,Primary,-36.0603,146.936,1068
New South Wales,Holy Spirit Primary School,Primary,-36.03689,146.93713,1028
New South Wales,Murray High School,Secondary,-36.0352,146.946,932
New South Wales,Hume Public School,Primary,-36.0504,146.947,824
New South Wales,Lavington East Public School,Primary,-36.0393,146.949,944
New South Wales,Springdale Heights Public School,Primary,-36.0319,146.95,905
New South Wales,Beckom Public School,Primary,-34.3272,146.963,930
New South Wales,Ungarie Central School,Primary,-33.638,146.978,943
New South Wales,Ungarie Central School,Secondary,-33.638,146.978,943
New South Wales,Border Christian College,Primary,-36.0398,146.981,1012
New South Wales,Border Christian College,Secondary,-36.0398,146.981,1012
New South Wales,Thurgoona Public School,Primary,-36.0473,146.983,1015
New South Wales,Trinity Anglican College - Albury,Primary,-36.0312,146.985,1136
New South Wales,Trinity Anglican College - Albury,Secondary,-36.0312,146.985,1136
New South Wales,Gerogery Public School,Primary,-35.83213,146.998,908
New South Wales,Table Top Public School,Primary,-35.9679,147.007,1020
